     2.11           OBSERVATION DATA    G (GPS)             RINEX VERSION / TYPE
teqc  2009Mar23                         20120101 01:04:05UTCPGM / RUN BY / DATE
Linux 2.4.20-8|Pentium IV|gcc -static|Linux|486/DX+         COMMENT
ALGO CACS-GSD 883160 ALGONQUIN PARK ON CANADA               MARKER NAME
40104M002                                                   MARKER NUMBER
OPERATOR            NRCan/GEODETIC SURVEY OF CANADA         OBSERVER / AGENCY
124-U               AOA BENCHMARK ACT   3.3.32.2N           REC # / TYPE / VERS
386                 AOAD/M_T        NONE                    ANT # / TYPE
   918129.4000 -4346071.2000  4561977.8000                  APPROX POSITION XYZ
        0.1000        0.0000        0.0000                  ANTENNA: DELTA H/E/N
     1     1                                                WAVELENGTH FACT L1/2
     7    L1    L2    C1    P2    P1    S1    S2            # / TYPES OF OBSERV
    30.0000                                                 INTERVAL
    P1 =    P1  TurboRogue; =    Y1  Benchmark              COMMENT
    L1 = L1(CA)                                             COMMENT
    P2 =    P2  TurboRogue; =    Y2  Benchmark              COMMENT
    L2 = L2(P2) TurboRogue; = L2(Y2) Benchmark              COMMENT
 SNR is mapped to RINEX snr flag value [0-9]                COMMENT
  L1 & L2: min(max(int(snr_dBHz/6), 0), 9)                  COMMENT
  2012     1     1     0     0    0.0000000     GPS         TIME OF FIRST OBS
                                                            END OF HEADER
 12  1  1  0  0  0.0000000  0  9G27G12G18G31G11G14G25G 9G22
 128984182.453 4 100507158.881 3  24544871.595    24544871.860    24544870.606
        24.900          23.800
 120716487.242 5  94064787.111 5  22971589.243    22971589.295    22971589.860
        34.000          33.000
 112875393.939 6  87954866.186 5  21479462.631    21479461.551    21479462.187
        41.000          35.100
 127481837.714 4  99336496.516 3  24258987.106    24258988.228    24258986.981
        27.100          23.000
 127514365.647 3  99361851.405 2  24265171.844    24265171.477    24265171.847
        23.000          16.100
 110411537.644 7  86034972.497 7  21010612.488    21010611.281    21010611.971
        44.000          42.000
 124593648.100 5  97085949.079 4  23709392.347    23709394.037    23709390.782
        33.000          25.900
 114985214.384 6  89598879.471 5  21880950.905    21880950.474    21880950.540
        39.000          34.000
 106490504.247 8  82979636.868 8  20264453.080    20264449.489    20264451.854
        49.000          50.000
 12  1  1  0  0 30.0000000  0  9G27G12G18G31G11G14G25G 9G22
 129082645.521 3 100583883.329 4  24563608.277    24563608.390    24563607.389
        22.100          24.900
 120659220.102 5  94020163.412 5  22960692.613    22960691.365    22960692.249
        34.000          32.000
 112944461.139 6  88008684.772 5  21492606.316    21492604.535    21492605.449
        41.000          35.100
 127369762.914 4  99249165.511 4  24237659.888    24237661.067    24237659.617
        25.900          25.900
 127483829.727 3  99338057.165 1  24259360.811    24259360.294    24259360.466
        21.100           9.000
 110369751.124 7  86002411.593 7  21002660.828    21002659.608    21002660.230
        44.000          42.000
 124499487.147 5  97012576.992 4  23691473.250    23691475.352    23691472.525
        33.000          24.900
 115073462.505 6  89667644.234 5  21897744.079    21897743.575    21897743.622
        39.000          34.000
 106486782.694 8  82976736.966 8  20263744.690    20263741.248    20263743.624
        49.000          50.000
 12  1  1  0  1  0.0000000  0  9G27G12G18G31G11G14G25G 9G22
 129181184.620 3 100660667.024 3  24582359.227    24582359.597    24582358.589
        23.800          22.100
 120602419.631 5  93975903.331 5  22949882.026    22949882.534    22949883.351
        34.000          32.000
 113013900.061 6  88062793.000 5  21505820.007    21505818.433    21505819.246
        41.000          35.100
 127257821.469 4  99161938.437 4  24216358.014    24216359.377    24216357.926
        28.100          27.100
 127453826.346 3  99314677.959 2  24253651.666    24253651.027    24253651.240
        23.000          17.000
 110328233.949 7  85970060.570 7  20994760.086    20994759.211    20994759.637
        44.000          43.000
 124405514.863 5  96939351.940 4  23673590.337    23673593.385    23673589.953
        33.000          27.100
 115162104.250 6  89736715.728 5  21914612.267    21914611.336    21914611.674
        38.000          33.000
 106483530.042 8  82974202.439 8  20263125.902    20263122.273    20263124.690
        49.000          50.000
 12  1  1  0  1 30.0000000  0  9G27G12G18G31G11G14G25G 9G22
 129279797.771 4 100737508.476 3  24601124.974    24601124.618    24601124.531
        28.100          21.100
 120546088.607 5  93932009.072 5  22939164.833    22939163.253    22939164.127
        35.100          32.000
 113083710.052 6  88117190.367 5  21519104.038    21519102.844    21519103.462
        41.000          35.100
 127146015.441 3  99074816.862 4  24195082.141    24195083.246    24195081.929
        23.800          24.900
 127424356.412 3  99291714.399 2  24248043.912    24248043.112    24248043.484
        23.800          15.100
 110286986.364 7  85937919.621 7  20986910.969    20986909.914    20986910.500
        44.000          43.000
 124311734.496 5  96866276.439 4  23655744.082    23655747.717    23655743.614
        32.000          27.100
 115251136.563 6  89806091.549 5  21931554.636    21931553.702    21931554.032
        39.000          34.000
 106480746.983 8  82972033.840 8  20262596.100    20262592.666    20262595.081
        49.000          50.000
 12  1  1  0  2  0.0000000  0  9G27G12G18G31G11G14G25G 9G22
 129378482.953 4 100814406.049 3  24619903.394    24619904.111    24619902.977
        24.900          21.100
 120490229.534 5  93888482.552 5  22928534.731    22928533.663    22928534.474
        35.100          33.000
 113153890.052 6  88171876.044 5  21532459.242    21532457.635    21532458.487
        41.000          35.100
 127034346.467 3  98987802.107 4  24173832.393    24173833.372    24173832.533
        23.000          25.900
 127395420.419 4  99269166.949 3  24242538.401    24242537.213    24242537.963
        24.900          19.900
 110246008.598 7  85905988.915 7  20979113.197    20979111.969    20979112.709
        44.000          42.000
 124218149.083 5  96793352.842 4  23637935.687    23637939.122    23637935.329
        33.000          28.100
 115340556.846 6  89875769.682 5  21948570.521    21948570.010    21948570.079
        39.000          34.000
 106478434.299 8  82970231.762 8  20262156.073    20262152.581    20262154.952
        49.000          50.000
 12  1  1  0  2 30.0000000  0  9G27G12G18G31G11G14G25G 9G22
 129477238.385 3 100891358.324 3  24638696.492    24638696.569    24638695.793
        22.100          19.300
 120434844.789 5  93845325.654 5  22917995.483    22917994.409    22917994.844
        35.100          33.000
 113224439.198 6  88226849.342 5  21545884.445    21545882.693    21545883.614
        41.000          35.100
 126922816.957 4  98900896.037 4  24152609.255    24152609.801    24152608.853
        24.900          24.900
 127367019.248 3  99247036.202 3  24237132.539    24237131.806    24237132.327
        23.000          19.300
 110205300.647 7  85874268.455 7  20971366.842    20971365.523    20971366.230
        44.000          42.000
 124124761.904 5  96720583.648 4  23620164.851    23620168.119    23620163.853
        32.000          29.000
 115430361.834 6  89945747.599 5  21965659.709    21965659.011    21965659.379
        39.000          33.000
 106476593.046 8  82968797.034 8  20261805.776    20261802.172    20261804.613
        49.000          50.000
 12  1  1  0  3  0.0000000  0  9G27G12G18G31G11G14G25G 9G22
 129576061.966 4 100968363.710 3  24657502.876    24657502.156    24657502.181
        28.100          23.800
 120379937.414 6  93802540.725 5  22907547.335    22907545.714    22907546.545
        36.000          33.000
 113295356.596 6  88282109.592 5  21559379.072    21559377.955    21559378.692
        41.000          35.100
 126811429.291 4  98814100.514 3  24131411.556    24131413.556    24131412.341
        24.900          23.800
 127339153.466 3  99225322.660 2  24231829.464    24231828.932    24231829.286
        23.000          17.800
 110164862.761 7  85842758.431 7  20963671.651    20963670.400    20963671.148
        44.000          43.000
 124031576.096 5  96647971.380 4  23602431.727    23602435.061    23602431.445
        33.000          28.100
 115520548.727 6  90016023.109 5  21982821.824    21982821.237    21982821.426
        39.000          34.000
 106475223.858 8  82967730.146 8  20261545.086    20261541.565    20261544.046
        49.000          50.000
 12  1  1  0  3 30.0000000  0  9G27G12G18G31G11G14G25G 9G22
 129674951.917 4 101045420.829 3  24676320.065    24676320.301    24676320.086
        28.100          23.000
 120325509.714 6  93760129.564 5  22897189.083    22897188.009    22897189.086
        36.000          33.000
 113366641.329 6  88337656.102 5  21572944.470    21572942.999    21572943.719
        41.000          35.100
 126700185.351 4  98727416.967 3  24110242.830    24110244.049    24110243.272
        24.900          22.100
 127311823.731 3  99204026.784 2  24226629.075    24226628.550    24226628.553
        23.800          16.100
 110124695.180 7  85811459.029 7  20956027.870    20956026.878    20956027.364
        44.000          43.000
 123938594.963 5  96575518.601 4  23584737.547    23584741.590    23584737.401
        33.000          28.100
 115611114.529 6  90086593.858 5  22000055.894    22000055.362    22000055.473
        39.000          33.000
 106474327.686 8  82967031.850 8  20261374.634    20261370.996    20261373.496
        49.000          50.000
 12  1  1  0  4  0.0000000  0  9G27G12G18G31G11G14G25G 9G22
 129773906.154 4 101122528.034 3  24695150.368    24695150.159    24695150.100
        24.900          22.100
 120271563.871 5  93718093.888 5  22886923.062    22886922.700    22886922.968
        35.100          33.000
 113438292.283 6  88393488.006 5  21586579.452    21586577.765    21586578.591
        41.000          34.000
 126589086.868 3  98640846.802 3  24089101.861    24089102.847    24089101.991
        23.800          23.000
 127285030.723 4  99183149.153 3  24221531.337    24221530.236    24221530.932
        25.900          19.300
 110084797.932 7  85780370.285 7  20948435.865    20948434.618    20948435.312
        44.000          43.000
 123845821.643 5  96503227.762 4  23567084.518    23567087.310    23567083.824
        34.000          29.000
 115702056.339 6  90157457.608 5  22017361.459    22017360.897    22017361.035
        38.000          33.000
 106473905.322 8  82966702.757 8  20261294.318    20261290.626    20261293.166
        49.000          50.000
 12  1  1  0  4 30.0000000  0  9G27G12G18G31G11G14G25G 9G22
 129872922.718 3 101199683.806 2  24713992.841    24713992.225    24713992.175
        23.800          17.800
 120218102.559 5  93676435.775 5  22876751.144    22876749.689    22876750.129
        35.100          34.000
 113510308.180 6  88449604.288 5  21600283.017    21600281.990    21600282.671
        41.000          34.000
 126478135.862 4  98554391.552 3  24067988.944    24067988.834    24067988.741
        24.900          23.000
 127258774.903 4  99162690.109 3  24216534.507    24216533.886    24216534.360
        25.900          19.300
 110045171.506 7  85749492.566 7  20940895.190    20940893.846    20940894.693
        44.000          43.000
 123753259.298 5  96431101.332 4  23549470.218    23549472.966    23549469.523
        33.000          27.100
 115793371.357 6  90228612.161 5  22034737.934    22034737.639    22034737.716
        38.000          33.000
 106473957.465 8  82966743.405 8  20261304.226    20261300.582    20261303.055
        49.000          50.000
 12  1  1  0  5  0.0000000  0  9G27G12G18G31G11G14G25G 9G22
 129971999.757 3 101276886.721 3  24732846.018    24732846.342    24732845.710
        23.000          22.100
 120165128.053 5  93635156.999 5  22866669.686    22866668.829    22866669.347
        35.100          34.000
 113582688.408 6  88506004.473 5  21614056.715    21614055.293    21614056.198
        41.000          34.000
 126367334.767 4  98468053.112 4  24046903.767    24046904.565    24046903.659
        27.100          24.900
 127233056.803 3  99142650.101 2  24211639.963    24211639.827    24211640.043
        23.800          17.800
 110005815.868 7  85718825.849 7  20933406.003    20933404.711    20933405.488
        44.000          43.000
 123660911.102 5  96359141.754 4  23531896.800    23531899.547    23531895.815
        33.000          27.100
 115885056.543 6  90300055.164 5  22052184.994    22052184.790    22052184.787
        38.000          32.000
 106474484.768 8  82967154.313 8  20261404.314    20261400.892    20261403.311
        49.000          50.000
 12  1  1  0  5 30.0000000  0  9G27G12G18G31G11G14G25G 9G22
 130071135.362 4 101354135.247 3  24751710.825    24751711.409    24751710.798
        25.900          23.000
 120112643.246 6  93594259.799 5  22856681.994    22856681.192    22856681.798
        36.000          34.000
 113655431.955 6  88562687.743 5  21627899.926    21627898.093    21627899.041
        41.000          34.000
 126256685.436 4  98381832.947 4  24025847.844    24025848.529    24025847.939
        28.100          24.900
 127207877.492 4  99123029.852 2  24206848.931    24206847.935    24206848.565
        25.900          15.100
 109966731.172 7  85688370.259 7  20925968.487    20925967.155    20925967.947
        44.000          43.000
 123568780.281 5  96287351.581 4  23514364.611    23514367.540    23514363.993
        34.000          27.100
 115977108.751 6  90371784.165 5  22069702.442    22069701.757    22069701.905
        38.000          33.000
 106475487.920 8  82967936.008 8  20261595.258    20261591.738    20261594.132
        49.000          50.000
 12  1  1  0  6  0.0000000  0  9G27G12G18G31G11G14G25G 9G22
 130170327.408 4 101431427.753 3  24770586.512    24770587.161    24770586.565
        27.100          23.800
 120060650.292 6  93553745.866 5  22846789.107    22846787.067    22846788.168
        36.000          34.000
 113728537.540 6  88619653.100 5  21641810.583    21641809.661    21641810.358
        40.000          34.000
 126146189.838 4  98295732.552 4  24004822.183    24004821.887    24004821.819
        29.000          25.900
 127183237.128 3  99103829.585 2  24202159.831    24202159.162    24202159.625
        23.000          17.000
 109927917.633 7  85658125.957 7  20918582.580    20918581.243    20918582.052
        44.000          43.000
 123476869.978 5  96215733.237 4  23496874.536    23496877.638    23496874.304
        34.000          29.000
 116069525.030 6  90443796.840 5  22087288.775    22087288.184    22087288.236
        38.000          33.000
 106476967.814 8  82969089.186 8  20261877.002    20261873.378    20261875.785
        49.000          50.000
 12  1  1  0  6 30.0000000  0  9G27G12G18G31G11G14G25G 9G22
 130269574.100 4 101508762.856 3  24789473.219    24789473.375    24789472.857
        25.900          23.000
 120009151.586 6  93513617.034 5  22836988.628    22836987.014    22836987.781
        36.000          33.000
 113802004.358 6  88676899.960 5  21655790.929    21655789.683    21655790.668
        40.000          33.000
 126035849.903 5  98209753.450 4  23983824.207    23983824.774    23983824.360
        30.100          25.900
 127159136.096 3  99085049.617 3  24197573.851    24197573.272    24197573.331
        23.000          22.100
 109889375.495 7  85628093.134 7  20911248.158    20911246.830    20911247.734
        45.000          43.000
 123385183.368 5  96144289.205 4  23479427.025    23479430.072    23479426.841
        35.100          28.100
 116162302.577 6  90516091.035 5  22104943.630    22104942.950    22104943.193
        38.000          32.000
 106478924.919 8  82970614.216 8  20262249.226    20262245.772    20262248.125
        49.000          50.000
 12  1  1  0  7  0.0000000  0  9G27G12G18G31G11G14G25G 9G22
 130368873.613 3 101586139.105 3  24808368.839    24808369.233    24808368.522
        22.100          19.900
 119958149.543 6  93473875.237 5  22827282.839    22827281.655    22827282.343
        36.000          33.000
 113875831.164 6  88734427.332 5  21669840.398    21669838.481    21669839.610
        40.000          33.000
 125925667.908 5  98123897.427 4  23962857.881    23962858.275    23962857.688
        30.100          29.000
 127135574.668 3  99066690.111 3  24193089.763    24193089.448    24193089.457
        19.300          19.300
 109851105.046 7  85598272.014 7  20903965.553    20903964.210    20903965.086
        44.000          43.000
 123293723.625 5  96073021.983 4  23462023.075    23462025.955    23462021.937
        32.000          28.100
 116255438.550 6  90588664.529 5  22122666.412    22122666.106    22122666.117
        37.000          32.000
 106481360.339 8  82972511.961 8  20262712.697    20262709.236    20262711.533
        49.000          50.000
 12  1  1  0  7 30.0000000  0  9G27G12G18G31G11G14G25G 9G22
 130468224.071 3 101663555.061 2  24827274.595    24827274.775    24827274.486
        23.000          17.800
 119907646.400 6  93434522.187 5  22817672.122    22817671.424    22817672.110
        36.000          34.000
 113950017.041 6  88792234.482 5  21683957.040    21683955.661    21683956.506
        40.000          33.000
 125815645.906 4  98038166.066 4  23941921.289    23941921.542    23941920.970
        27.100          29.000
 127112553.978 3  99048751.957 3  24188708.817    24188708.606    24188708.880
        23.000          21.100
 109813106.237 7  85568662.563 7  20896734.629    20896733.337    20896734.147
        45.000          43.000
 123202493.941 5  96001934.003 4  23444663.012    23444665.209    23444661.778
        33.000          27.100
 116348929.901 6  90661514.917 5  22140457.883    22140456.993    22140457.344
        37.000          32.000
 106484274.471 8  82974782.724 8  20263267.321    20263263.857    20263266.144
        49.000          50.000
 12  1  1  0  8  0.0000000  0  9G27G12G18G31G11G14G25G 9G22
 130567623.663 4 101741009.329 3  24846189.859    24846189.516    24846189.670
        24.900          19.300
 119857644.869 6  93395560.018 5  22808157.130    22808156.609    22808156.928
        36.000          34.000
 114024561.087 6  88850320.712 5  21698142.083    21698141.032    21698141.831
        40.000          34.000
 125705785.572 3  97952560.711 4  23921015.060    23921015.160    23921014.794
        23.800          27.100
 127090073.895 3  99031235.034 3  24184430.751    24184430.969    24184430.382
        21.100          21.100
 109775379.094 7  85539264.803 7  20889555.657    20889554.093    20889555.037
        45.000          43.000
 123111497.453 5  95931027.756 4  23427345.433    23427349.373    23427345.659
        33.000          29.000
 116442773.543 6  90734639.831 5  22158314.926    22158314.902    22158314.551
        37.000          32.000
 106487668.103 8  82977427.117 8  20263912.920    20263909.650    20263911.964
        49.000          50.000
 12  1  1  0  8 30.0000000  0  9G27G12G18G31G11G14G25G 9G22
 130667070.325 4 101818500.278 3  24865114.130    24865114.263    24865113.883
        27.100          19.900
 119808146.868 6  93356990.192 5  22798737.706    22798737.022    22798737.573
        36.000          34.000
 114099461.665 6  88908684.760 5  21712395.384    21712394.116    21712394.841
        40.000          33.000
 125596089.140 4  97867083.071 4  23900140.814    23900141.015    23900140.480
        25.900          29.000
 127068135.241 3  99014140.007 3  24180256.002    24180255.973    24180255.621
        21.100          23.000
 109737923.970 7  85510079.003 7  20882427.974    20882426.605    20882427.425
        45.000          43.000
 123020737.362 5  95860305.709 4  23410075.088    23410078.322    23410074.696
        34.000          29.000
 116536966.801 6  90808037.170 5  22176239.876    22176239.396    22176239.431
        37.000          32.000
 106491541.822 8  82980445.607 8  20264650.170    20264646.723    20264649.087
        49.000          50.000
 12  1  1  0  9  0.0000000  0  9G27G12G18G31G11G14G25G 9G22
 130766562.331 3 101896026.534 3  24884046.511    24884047.468    24884046.528
        21.100          22.100
 119759155.235 6  93318814.930 5  22789414.898    22789414.177    22789414.959
        36.000          34.000
 114174717.938 6  88967325.991 5  21726716.560    21726715.059    21726715.919
        40.000          33.000
 125486558.490 4  97781734.627 4  23879296.687    23879297.745    23879297.117
        24.900          28.100
 127046738.560 2  98997467.293 3  24176184.002    24176184.584    24176183.755
        17.800          23.000
 109700740.965 7  85481105.253 7  20875352.178    20875350.765    20875351.675
        45.000          43.000
 122930216.829 5  95789770.298 4  23392850.110    23392852.715    23392849.230
        34.000          29.000
 116631506.350 6  90881704.342 5  22194229.913    22194229.479    22194229.538
        37.000          32.000
 106495896.505 8  82983838.870 8  20265478.847    20265475.431    20265477.646
        49.000          50.000
 12  1  1  0  9 30.0000000  0  9G27G12G18G31G11G14G25G 9G22
 130866097.731 3 101973586.582 3  24902987.807    24902988.615    24902987.559
        22.100          19.900
 119710672.075 6  93281035.906 5  22780188.579    22780187.936    22780188.681
        36.000          33.000
 114250328.889 6  89026243.582 5  21741104.929    21741103.368    21741104.199
        39.000          33.000
 125377195.773 4  97696517.003 4  23858486.371    23858486.726    23858486.271
        28.100          27.100
 127025883.622 3  98981216.736 3  24172216.746    24172215.782    24172216.118
        21.100          22.100
 109663830.354 7  85452343.749 7  20868328.375    20868326.944    20868327.864
        45.000          43.000
 122839938.996 5  95719423.990 4  23375670.264    23375673.220    23375669.672
        34.000          29.000
 116726389.497 6  90955639.254 5  22212285.806    22212284.937    22212285.403
        37.000          31.000
 106500732.994 8  82987607.573 8  20266399.121    20266395.837    20266397.986
        49.000          50.000
 12  1  1  0 10  0.0000000  0  9G27G12G18G31G11G14G25G 9G22
 130965674.544 4 102051178.918 3  24921937.151    24921937.515    24921936.769
        24.900          22.100
 119662699.567 6  93243654.774 5  22771060.165    22771059.149    22771059.884
        37.000          34.000
 114326293.355 6  89085436.614 5  21755560.145    21755558.845    21755559.666
        39.000          33.000
 125268002.982 4  97611431.760 3  23837707.734    23837707.297    23837707.605
        28.100          21.100
 127005571.186 2  98965388.881 3  24168350.495    24168350.437    24168350.352
        17.000          23.000
 109627192.287 7  85423794.617 7  20861356.218    20861355.005    20861355.770
        45.000          44.000
 122749907.054 5  95649269.300 4  23358536.845    23358540.528    23358536.813
        34.000          29.000
 116821613.517 6  91029839.800 5  22230406.334    22230406.334    22230405.929
        37.000          31.000
 106506051.020 8  82991751.497 8  20267411.228    20267407.771    20267410.093
        49.000          50.000
 12  1  1  0 10 30.0000000  0  9G27G12G18G31G11G14G25G 9G22
 131065291.175 4 102128802.283 3  24940893.100    24940893.871    24940892.722
        25.900          19.300
 119615239.904 6  93206673.250 5  22762028.619    22762027.591    22762028.556
        37.000          33.000
 114402610.533 6  89144904.500 5  21770083.129    21770081.487    21770082.406
        39.000          33.000
 125158982.070 5  97526480.442 3  23816962.068    23816961.915    23816961.828
        31.000          23.000
 126985801.443 3  98949983.917 3  24164588.607    24164588.804    24164588.076
        22.100          22.100
 109590826.964 7  85395458.023 7  20854436.171    20854434.877    20854435.708
        45.000          44.000
 122660124.158 5  95579308.668 4  23341451.927    23341455.233    23341451.845
        35.100          28.100
 116917175.390 6  91104303.587 5  22248590.867    22248590.867    22248590.429
        37.000          32.000
 106511851.785 8  82996271.581 8  20268515.114    20268511.551    20268513.953
        49.000          50.000
 12  1  1  0 11  0.0000000  0  9G27G12G18G31G11G14G25G 9G22
 131164945.831 4 102206455.315 3  24959856.736    24959857.464    24959856.208
        25.900          19.300
 119568295.475 6  93170093.220 5  22753096.006    22753094.406    22753095.476
        36.000          33.000
 114479278.976 6  89204646.115 5  21784672.377    21784671.151    21784671.849
        40.000          32.000
 125050135.208 5  97441664.734 4  23796248.932    23796248.596    23796248.664
        30.100          24.900
 126966574.724 3  98935002.098 3  24160930.032    24160929.564    24160930.296
        23.000          22.100
 109554734.799 7  85367334.273 7  20847568.072    20847566.721    20847567.558
        44.000          44.000
 122570593.549 5  95509544.602 5  23324415.308    23324418.308    23324414.620
        34.000          30.100
 117013072.012 6  91179028.240 5  22266839.214    22266838.606    22266839.039
        37.000          31.000
 106518135.933 8  83001168.325 8  20269710.946    20269707.398    20269709.784
        49.000          50.000
 12  1  1  0 11 30.0000000  0  9G27G12G18G31G11G14G25G 9G22
 131264636.619 3 102284136.463 3  24978826.612    24978827.757    24978826.669
        23.000          21.100
 119521868.410 6  93133916.312 5  22744260.870    22744259.897    22744260.739
        37.000          34.000
 114556297.405 6  89264660.423 5  21799328.552    21799327.366    21799328.082
        40.000          32.000
 124941464.140 4  97356986.066 4  23775569.055    23775569.323    23775569.211
        28.100          27.100
 126947891.439 3  98920443.719 3  24157374.599    24157374.439    24157374.333
        22.100          22.100
 109518915.782 7  85339423.362 7  20840751.793    20840750.516    20840751.309
        44.000          44.000
 122481318.313 5  95439979.558 4  23307427.025    23307429.625    23307426.364
        35.100          29.000
 117109300.614 6  91254011.572 5  22285150.945    22285150.791    22285150.492
        36.000          31.000
 106524903.819 8  83006442.012 8  20270998.519    20270995.267    20270997.524
        49.000          50.000
 12  1  1  0 12  0.0000000  0  9G27G12G18G31G11G14G25G 9G22
 131364361.701 3 102361844.340 3  24997804.189    24997804.878    24997804.015
        23.000          23.000
 119475961.032 6  93098144.373 5  22735524.289    22735524.093    22735524.608
        37.000          34.000
 114633664.978 6  89324946.779 5  21814051.574    21814049.889    21814050.770
        39.000          32.000
 124832971.097 4  97272446.105 4  23754923.635    23754924.058    23754923.441
        29.000          28.100
 126929751.710 3  98906308.891 3  24153922.879    24153922.471    24153922.781
        21.100          21.100
 109483369.934 7  85311725.316 7  20833987.470    20833986.381    20833987.067
        44.000          44.000
 122392301.607 6  95370615.941 4  23290487.468    23290490.219    23290486.921
        36.000          29.000
 117205858.156 6  91329251.207 5  22303525.863    22303525.863    22303525.152
        36.000          31.000
 106532156.113 8  83012093.156 8  20272378.778    20272375.239    20272377.614
        49.000          50.000
 12  1  1  0 12 30.0000000  0  9G27G12G18G31G11G14G25G 9G22
 131464119.246 3 102439577.523 3  25016788.246    25016787.641    25016787.286
        21.100          21.100
 119430575.423 6  93062779.013 5  22726888.625    22726887.217    22726888.014
        37.000          34.000
 114711380.498 6  89385504.269 5  21828839.986    21828838.842    21828839.412
        39.000          32.000
 124724658.018 4  97188046.367 4  23734311.951    23734312.475    23734312.014
        27.100          28.100
 126912155.839 3  98892597.852 3  24150574.843    24150573.842    24150574.352
        23.000          22.100
 109448097.387 7  85284240.235 7  20827275.541    20827274.221    20827274.933
        44.000          44.000
 122303546.627 6  95301456.280 5  23273597.442    23273600.876    23273597.257
        36.000          31.000
 117302741.757 6  91404744.932 5  22321961.625    22321961.134    22321961.319
        36.000          30.100
 106539893.213 8  83018122.074 8  20273851.230    20273847.465    20273849.951
        49.000          50.000
 12  1  1  0 13  0.0000000  0  9G27G12G18G31G11G14G25G 9G22
 131563907.522 3 102517334.634 3  25035776.550    25035776.687    25035775.996
        23.000          22.100
 119385713.824 6  93027821.967 5  22718351.288    22718350.228    22718351.124
        37.000          34.000
 114789442.671 6  89446331.900 5  21843694.842    21843693.712    21843694.112
        39.000          33.000
 124616526.687 4  97103788.271 4  23713734.694    23713735.753    23713734.993
        27.100          28.100
 126895104.007 3  98879310.738 3  24147329.901    24147328.632    24147329.527
        19.900          22.100
 109413098.353 7  85256968.283 7  20820615.387    20820614.077    20820614.899
        45.000          44.000
 122215056.510 5  95232502.994 5  23256758.614    23256761.478    23256758.020
        35.100          30.100
 117399948.402 5  91480490.355 5  22340459.534    22340459.058    22340458.904
        35.100          30.100
 106548115.687 8  83024529.210 8  20275415.675    20275412.170    20275414.625
        49.000          50.000
 12  1  1  0 13 30.0000000  0  9G27G12G18G31G11G14G25G 9G22
 131663724.485 4 102595114.126 3  25054772.099    25054771.031    25054771.289
        24.900          19.300
 119341378.654 6  92993275.120 5  22709914.258    22709913.476    22709914.072
        37.000          34.000
 114867850.449 6  89507428.825 5  21858615.574    21858614.284    21858614.856
        39.000          33.000
 124508579.141 4  97019673.357 4  23693193.296    23693193.296    23693193.230
        27.100          27.100
 126878596.551 3  98866447.788 3  24144187.809    24144187.977    24144187.710
        21.100          23.000
 109378373.060 7  85229909.637 7  20814007.484    20814006.086    20814006.950
        44.000          44.000
 122126834.390 5  95163758.530 4  23239970.539    23239973.299    23239969.784
        35.100          29.000
 117497475.232 6  91556485.295 5  22359018.625    22359018.151    22359018.118
        37.000          31.000
 106556824.288 8  83031315.135 8  20277072.680    20277069.426    20277071.743
        49.000          50.000
 12  1  1  0 14  0.0000000  0  9G27G12G18G31G11G14G25G 9G22
 131763568.516 3 102672914.698 3  25073772.857    25073770.581    25073771.492
        22.100          19.300
 119297571.349 6  92959139.601 5  22701577.616    22701577.285    22701578.071
        37.000          34.000
 114946602.206 6  89568793.776 5  21873601.510    21873600.339    21873600.848
        39.000          32.000
 124400817.495 4  96935703.335 4  23672686.999    23672687.494    23672686.739
        27.100          27.100
 126862633.714 3  98854009.239 3  24141150.093    24141150.113    24141149.646
        21.100          23.000
 109343921.587 7  85203064.355 7  20807451.576    20807450.249    20807451.110
        45.000          44.000
 122038883.436 5  95095225.380 4  23223233.288    23223236.783    23223233.086
        35.100          29.000
 117595319.414 6  91632727.504 5  22377637.556    22377636.646    22377636.937
        36.000          30.100
 106566019.272 8  83038480.054 8  20278822.564    20278819.243    20278821.527
        49.000          50.000
 12  1  1  0 14 30.0000000  0  9G27G12G18G31G11G14G25G 9G22
 131863437.888 4 102750735.008 3  25092776.636    25092775.028    25092775.640
        24.900          21.100
 119254294.597 6  92925417.495 5  22693342.692    22693341.701    22693342.880
        37.000          34.000
 115025697.234 6  89630426.212 5  21888652.303    21888651.688    21888652.023
        39.000          32.000
 124293243.579 4  96851879.545 4  23652215.854    23652216.776    23652216.099
        29.000          28.100
 126847215.434 3  98841995.019 3  24138216.539    24138216.128    24138216.147
        21.100          22.100
 109309744.780 7  85176433.098 7  20800948.066    20800946.553    20800947.503
        44.000          44.000
 121951206.812 5  95026906.000 5  23206549.992    23206552.448    23206549.403
        35.100          30.100
 117693477.931 6  91709214.671 5  22396316.310    22396316.010    22396316.023
        36.000          30.100
 106575701.409 8  83046024.561 8  20280665.298    20280661.639    20280664.032
        49.000          50.000
 12  1  1  0 15  0.0000000  0  9G27G12G18G31G11G14G25G 9G22
 131963330.772 3 102828573.659 3  25111785.001    25111783.966    25111784.345
        22.100          19.300
 119211550.365 6  92892110.346 5  22685208.921    22685207.548    22685208.903
        37.000          34.000
 115105134.211 6  89692325.145 5  21903769.192    21903767.895    21903768.528
        39.000          32.000
 124185859.321 5  96768203.561 5  23631782.043    23631782.200    23631781.846
        30.100          30.100
 126832341.938 3  98830405.313 3  24135386.765    24135385.896    24135386.529
        23.800          23.000
 109275841.967 7  85150015.334 7  20794496.571    20794495.038    20794495.998
        45.000          44.000
 121863807.653 6  94958802.811 5  23189918.636    23189920.748    23189917.796
        37.000          30.100
 117791947.962 5  91785944.556 5  22415054.370    22415054.047    22415054.194
        35.100          31.000
 106585870.971 8  83053948.883 8  20282600.294    20282596.847    20282599.198
        49.000          50.000
 12  1  1  0 15 30.0000000  0 10G27G12G18G31G11G14G25G 1G 9G22
 132063245.454 3 102906429.256 3  25130797.105    25130796.922    25130796.872
        23.000          21.100
 119169340.623 6  92859219.664 5  22677176.483    22677175.161    22677176.643
        37.000          34.000
 115184911.761 6  89754489.440 5  21918950.786    21918949.174    21918949.944
        39.000          32.000
 124078666.869 5  96684677.063 5  23611383.919    23611384.339    23611383.787
        31.000          31.000
 126818013.473 3  98819240.310 3  24132659.788    24132658.889    24132659.308
        23.000          19.300
 109242213.518 7  85123811.363 7  20788097.159    20788095.718    20788096.565
        44.000          44.000
 121776689.062 5  94890918.266 5  23173340.174    23173342.645    23173339.262
        35.100          30.100
 129376861.903 3 100813126.964 3  24619608.928    24619612.123    24619608.242
        23.000          23.000
 117890726.648 5  91862914.952 5  22433851.454    22433851.319    22433851.131
        35.100          31.000
 106596528.450 8  83062253.406 8  20284628.217    20284624.925    20284627.263
        49.000          49.000
 12  1  1  0 16  0.0000000  0 10G27G12G18G31G11G14G25G 1G 9G22
 132163180.114 3 102984300.448 3  25149814.270    25149813.420    25149813.802
        23.000          19.300
 119127667.620 6  92826747.227 5  22669246.633    22669245.434    22669246.293
        37.000          34.000
 115265028.731 6  89816918.223 5  21934195.452    21934194.844    21934195.343
        38.000          31.000
 123971668.044 5  96601301.403 5  23591022.436    23591022.936    23591022.547
        31.000          30.100
 126804229.807 3  98808499.812 3  24130036.649    24130035.809    24130036.217
        23.000          19.900
 109208859.731 7  85097821.413 7  20781750.101    20781748.621    20781749.573
        44.000          44.000
 121689854.236 6  94823254.833 5  23156815.106    23156818.499    23156815.014
        36.000          31.000
 129305203.350 3 100757289.125 3  24605972.691    24605975.773    24605972.326
        23.000          23.800
 117989810.964 5  91940123.518 5  22452706.647    22452706.017    22452706.109
        35.100          30.100
 106607674.333 8  83070938.502 8  20286749.347    20286745.932    20286748.304
        49.000          50.000
 12  1  1  0 16 30.0000000  0 10G27G12G18G31G11G14G25G 1G 9G22
 132263132.974 3 103062185.845 2  25168834.042    25168833.896    25168833.911
        22.100          16.100
 119086533.097 6  92794694.395 5  22661419.055    22661417.691    22661418.750
        37.000          34.000
 115345483.863 6  89879610.527 5  21949505.801    21949505.041    21949505.580
        38.000          32.000
 123864864.853 5  96518078.213 4  23570698.764    23570698.556    23570698.673
        31.000          28.100
 126790991.003 4  98798183.901 3  24127517.163    24127516.651    24127516.962
        24.900          19.900
 109175780.715 7  85072045.571 7  20775455.177    20775453.884    20775454.752
        44.000          44.000
 121603306.230 6  94755814.924 5  23140345.785    23140348.782    23140345.555
        36.000          31.000
 129233968.914 3 100701781.788 3  24592417.435    24592420.267    24592416.909
        21.100          23.800
 118089197.965 5  92017567.929 5  22471619.724    22471619.056    22471619.110
        35.100          31.000
 106619309.035 8  83080004.498 8  20288963.183    20288959.920    20288962.221
        49.000          50.000
 12  1  1  0 17  0.0000000  0 10G27G12G18G31G11G14G25G 1G 9G22
 132363102.364 3 103140084.087 3  25187858.156    25187857.473    25187858.047
        19.300          19.900
 119045939.370 6  92763062.952 5  22653693.809    22653693.011    22653693.752
        37.000          34.000
 115426275.876 6  89942565.311 5  21964880.755    21964879.296    21964879.698
        37.000          32.000
 123758259.165 4  96435008.918 4  23550412.511    23550412.515    23550411.957
        28.100          29.000
 126778297.223 3  98788292.679 3  24125102.003    24125101.302    24125101.682
        23.800          21.100
 109142976.640 7  85046483.967 7  20769212.833    20769211.493    20769212.370
        44.000          44.000
 121517048.205 6  94688600.940 5  23123932.122    23123934.843    23123931.372
        37.000          32.000
 129163160.973 3 100646606.778 4  24578942.899    24578946.273    24578942.653
        23.000          25.900
 118188884.858 5  92095246.026 5  22490588.481    22490589.024    22490588.446
        34.000          31.000
 106631432.902 8  83089451.665 8  20291270.594    20291267.037    20291269.380
        49.000          49.000
 12  1  1  0 17 30.0000000  0 10G27G12G18G31G11G14G25G 1G 9G22
 132463086.627 3 103217993.939 2  25206885.389    25206884.028    25206884.163
        21.100          17.800
 119005888.364 6  92731854.421 5  22646072.381    22646071.791    22646072.512
        37.000          35.100
 115507403.394 6  90005781.514 5  21980317.990    21980317.293    21980317.482
        37.000          32.000
 123651853.091 4  96352095.192 4  23530163.488    23530163.633    23530163.738
        28.100          27.100
 126766148.610 3  98778826.237 2  24122790.080    24122788.949    24122789.819
        22.100          17.000
 109110447.908 7  85021136.908 7  20763022.792    20763021.562    20763022.314
        44.000          44.000
 121431083.297 6  94621615.360 5  23107572.840    23107575.920    23107572.301
        36.000          31.000
 129092781.666 3 100591765.794 4  24565549.929    24565552.845    24565549.636
        21.100          25.900
 118288868.700 5  92173155.528 4  22509615.780    22509614.528    22509615.300
        35.100          29.000
 106644046.526 8  83099280.453 8  20293670.705    20293667.422    20293669.667
        49.000          49.000
 12  1  1  0 18  0.0000000  0 10G27G12G18G31G11G14G25G 1G 9G22
 132563083.953 3 103295913.938 3  25225912.945    25225913.100    25225912.401
        21.100          19.900
 118966381.607 6  92701069.983 5  22638554.377    22638553.660    22638554.636
        37.000          34.000
 115588865.431 6  90069258.374 5  21995819.901    21995819.019    21995819.405
        37.000          31.000
 123545648.490 4  96269338.445 4  23509953.048    23509953.363    23509953.281
        29.000          27.100
 126754545.020 4  98769784.498 2  24120582.647    24120581.098    24120582.274
        24.900          17.800
 109078194.476 7  84996004.379 7  20756885.370    20756883.975    20756884.789
        44.000          44.000
 121345414.576 6  94554860.572 5  23091270.709    23091273.733    23091270.342
        36.000          31.000
 129022833.252 3 100537260.573 3  24552238.875    24552241.828    24552239.205
        22.100          19.300
 118389146.282 5  92251293.901 5  22528697.690    22528697.545    22528697.246
        35.100          31.000
 106657150.166 8  83109491.070 8  20296164.460    20296161.004    20296163.308
        49.000          50.000
 12  1  1  0 18 30.0000000  0  9G12G18G31G11G14G25G 1G 9G22
 118927421.435 6  92670711.431 5  22631140.707    22631139.800    22631140.630
        37.000          35.100
 115670660.361 6  90132994.646 5  22011385.933    22011384.173    22011384.878
        37.000          31.000
 123439647.292 5  96186740.195 4  23489781.601    23489782.091    23489781.452
        30.100          29.000
 126743486.463 3  98761167.450 3  24118477.317    24118476.812    24118477.178
        23.000          19.300
 109046216.563 7  84971086.532 7  20750800.273    20750798.650    20750799.758
        45.000          44.000
 121260045.148 6  94488338.988 5  23075025.816    23075028.432    23075024.949
        36.000          30.100
 128953318.063 3 100483092.828 2  24539010.286    24539013.716    24539010.279
        19.300          17.800
 118489715.314 5  92329659.379 4  22547835.174    22547834.641    22547834.835
        35.100          29.000
 106670744.094 8  83120083.736 8  20298751.271    20298747.839    20298750.188
        49.000          49.000
 12  1  1  0 19  0.0000000  0  9G12G18G31G11G14G25G 1G 9G22
 118889009.985 6  92640780.475 5  22623831.615    22623830.240    22623831.405
        37.000          35.100
 115752787.086 6  90196989.456 5  22027013.156    22027012.407    22027012.757
        37.000          31.000
 123333851.414 5  96104301.955 5  23469649.449    23469649.842    23469649.530
        32.000          30.100
 126732972.839 3  98752975.011 2  24116477.200    24116475.851    24116476.782
        23.800          17.000
 109014514.255 7  84946383.444 7  20744767.450    20744765.859    20744766.927
        44.000          44.000
 121174978.156 6  94422053.056 5  23058837.853    23058840.324    23058837.311
        37.000          30.100
 128884238.264 3 100429264.425 3  24525865.957    24525868.490    24525865.178
        19.300          19.300
 118590572.744 5  92408249.584 4  22567027.859    22567027.120    22567027.401
        34.000          29.000
 106684828.727 8  83131058.770 8  20301431.620    20301428.005    20301430.466
        49.000          49.000
 12  1  1  0 19 30.0000000  0  9G12G18G31G11G14G25G 1G 9G22
 118851149.018 6  92611278.454 5  22616626.605    22616625.189    22616626.355
        37.000          34.000
 115835244.519 6  90261241.975 5  22042704.157    22042703.366    22042703.964
        37.000          30.100
 123228262.801 5  96022025.217 5  23449556.471    23449557.053    23449556.651
        31.000          30.100
 126723004.145 3  98745207.249 3  24114579.963    24114579.518    24114579.859
        23.800          21.100
 108983087.951 7  84921895.437 7  20738787.127    20738785.650    20738786.601
        44.000          44.000
 121090216.678 6  94356005.153 5  23042708.024    23042710.776    23042707.830
        37.000          30.100
 128815596.093 2 100375777.009 3  24512803.108    24512806.100    24512802.701
        17.800          19.300
 118691715.542 5  92487062.171 4  22586274.845    22586273.887    22586274.297
        34.000          28.100
 106699404.480 8  83142416.498 8  20304205.296    20304201.712    20304204.159
        49.000          49.000
 12  1  1  0 20  0.0000000  0  9G12G18G31G11G14G25G 1G 9G22
 118813840.011 6  92582206.518 5  22609526.925    22609525.701    22609526.773
        37.000          34.000
 115918031.009 6  90325750.881 5  22058458.852    22058457.286    22058457.867
        37.000          30.100
 123122883.158 5  95939911.313 4  23429503.413    23429503.632    23429503.319
        32.000          29.000
 126713580.297 3  98737864.028 2  24112786.190    24112785.679    24112786.194
        22.100          17.800
 108951937.602 7  84897622.470 7  20732859.416    20732857.940    20732858.842
        44.000          45.000
 121005763.857 6  94290197.800 5  23026636.639    23026640.299    23026636.533
        37.000          32.000
 128747393.754 3 100322632.331 3  24499824.424    24499827.575    24499824.742
        19.900          21.100
 118793140.594 5  92566094.683 4  22605574.917    22605574.727    22605574.684
        34.000          29.000
 106714471.828 8  83154157.282 8  20307072.403    20307068.926    20307071.302
        49.000          49.000
 12  1  1  0 20 30.0000000  0  9G12G18G31G11G14G25G 1G 9G22
 118777085.161 6  92553566.409 5  22602532.568    22602531.920    22602532.539
        37.000          35.100
 116001145.338 6  90390515.251 5  22074274.438    22074273.530    22074273.959
        37.000          31.000
 123017714.460 5  95857961.777 4  23409490.926    23409490.465    23409490.633
        30.100          29.000
 126704701.017 3  98730945.153 2  24111096.938    24111096.079    24111096.728
        23.800          17.800
 108921063.518 7  84873564.780 7  20726984.189    20726982.755    20726983.649
        44.000          45.000
 120921622.815 6  94224633.392 5  23010626.475    23010628.574    23010625.374
        37.000          31.000
 128679633.413 3 100269832.093 3  24486930.678    24486933.285    24486930.818
        23.800          19.900
 118894845.454 5  92645345.218 4  22624929.041    22624928.777    22624928.608
        34.000          29.000
 106730030.740 8  83166281.102 8  20310033.275    20310029.646    20310032.133
        49.000          49.000
 12  1  1  0 21  0.0000000  0  9G12G18G31G11G14G25G 1G 9G22
 118740886.153 6  92525359.418 5  22595643.912    22595643.459    22595643.926
        37.000          35.100
 116084586.370 6  90455534.185 5  22090152.324    22090152.011    22090152.028
        36.000          31.000
 122912758.646 5  95776178.134 4  23389517.829    23389517.806    23389517.709
        30.100          29.000
 126696366.426 4  98724450.662 3  24109511.202    24109509.945    24109510.615
        25.900          19.300
 108890465.716 7  84849722.370 7  20721161.438    20721160.202    20721161.058
        44.000          45.000
 120837796.598 6  94159314.311 5  22994674.110    22994677.129    22994673.674
        38.000          32.000
 128612317.322 3 100217377.981 3  24474120.606    24474123.581    24474120.568
        21.100          19.900
 118996827.025 5  92724811.384 4  22644336.074    22644334.643    22644335.382
        35.100          28.100
 106746081.737 8  83178788.359 8  20313087.661    20313083.989    20313086.533
        49.000          49.000
 12  1  1  0 21 30.0000000  0  9G12G18G31G11G14G25G 1G 9G22
 118705244.688 6  92497586.884 5  22588861.366    22588860.709    22588861.360
        37.000          35.100
 116168352.503 6  90520806.448 5  22106093.302    22106091.910    22106092.250
        36.000          30.100
 122808017.770 4  95694561.954 4  23369585.746    23369586.063    23369586.065
        29.000          28.100
 126688576.178 3  98718380.362 2  24108028.319    24108027.245    24108028.067
        23.800          16.100
 108860144.686 7  84826095.628 7  20715391.719    20715390.252    20715391.232
        44.000          45.000
 120754288.322 6  94094242.973 5  22978783.027    22978785.705    22978782.613
        38.000          31.000
 128545447.502 3 100165271.685 3  24461396.581    24461399.296    24461395.925
        23.000          23.800
 119099082.569 5  92804491.025 5  22663793.878    22663793.950    22663793.571
        33.000          30.100
 106762625.108 8  83191679.286 8  20316235.702    20316232.096    20316234.609
        49.000          49.000
 12  1  1  0 22  0.0000000  0  9G12G18G31G11G14G25G 1G 9G22
 118670162.847 6  92470250.421 5  22582185.752    22582184.777    22582185.649
        37.000          35.100
 116252442.263 6  90586330.906 5  22122094.778    22122093.806    22122094.113
        36.000          30.100
 122703493.750 5  95613114.752 5  23349696.010    23349695.806    23349696.203
        33.000          30.100
 126681330.173 3  98712734.160 2  24106649.496    24106648.311    24106649.008
        23.000          12.600
 108830100.368 7  84802684.490 7  20709674.515    20709672.932    20709673.974
        44.000          45.000
 120671101.019 6  94029421.759 5  22962953.510    22962955.613    22962952.687
        38.000          31.000
 128479026.202 3 100113514.865 2  24448756.300    24448759.073    24448755.689
        23.800          17.800
 119201609.043 5  92884381.788 4  22683304.054    22683303.573    22683303.665
        34.000          28.100
 106779661.033 8  83204954.027 8  20319477.534    20319473.959    20319476.498
        49.000          49.000
 12  1  1  0 22 30.0000000  0  9G12G18G31G11G14G25G 1G 9G22
 118635642.418 6  92443351.430 5  22575616.988    22575615.489    22575616.941
        38.000          35.100
 116336854.557 6  90652106.697 5  22138157.364    22138156.988    22138157.362
        36.000          30.100
 122599188.221 5  95531837.803 5  23329847.553    23329847.214    23329847.599
        33.000          30.100
 126674628.120 3  98707511.785 2  24105374.612    24105373.039    24105374.179
        23.800          15.100
 108800332.949 7  84779489.112 7  20704009.736    20704008.313    20704009.213
        44.000          45.000
 120588237.807 6  93964853.070 5  22947184.357    22947187.065    22947184.155
        38.000          32.000
 128413055.511 3 100062109.154 3  24436202.223    24436205.536    24436202.191
        21.100          21.100
 119304403.817 5  92964481.611 4  22702865.951    22702864.916    22702865.451
        34.000          28.100
 106797189.674 8  83218612.709 8  20322813.191    20322809.580    20322812.107
        49.000          49.000
 12  1  1  0 23  0.0000000  0  9G12G18G31G11G14G25G 1G 9G22
 118601685.000 6  92416891.139 5  22569154.931    22569153.797    22569154.951
        38.000          35.100
 116421587.933 6  90718132.666 5  22154282.478    22154281.399    22154281.801
        36.000          30.100
 122495103.291 5  95450732.738 5  23310040.721    23310040.553    23310040.866
        33.000          30.100
 126668469.847 4  98702713.193 2  24104202.499    24104200.859    24104202.407
        24.900          17.000
 108770842.679 7  84756509.688 7  20698397.989    20698396.446    20698397.420
        44.000          45.000
 120505701.683 6  93900539.266 5  22931477.915    22931481.019    22931477.839
        38.000          32.000
 128347537.644 4 100011056.321 4  24423734.890    24423737.620    24423734.599
        24.900          24.900
 119407464.269 5  93044788.464 4  22722476.828    22722476.508    22722476.335
        32.000          27.100
 106815211.469 8  83232655.669 8  20326242.596    20326239.048    20326241.382
        49.000          49.000
 12  1  1  0 23 30.0000000  0  9G12G18G31G11G14G25G 1G 9G22
 118568292.329 6  92390870.907 5  22562800.655    22562799.141    22562800.666
        38.000          35.100
 116506640.658 6  90784407.459 5  22170467.460    22170466.376    22170466.858
        36.000          31.000
 122391240.858 5  95369801.077 5  23290276.615    23290276.330    23290276.369
        31.000          31.000
 126662855.023 4  98698338.003 3  24103134.050    24103132.916    24103133.902
        24.900          19.300
 108741629.658 7  84733746.304 7  20692838.883    20692837.406    20692838.390
        44.000          45.000
 120423495.734 6  93836482.733 5  22915835.816    22915837.866    22915834.858
        38.000          32.000
 128282474.621 3  99960357.879 3  24411353.879    24411356.816    24411353.294
        23.800          23.800
 119510787.332 5  93125299.929 4  22742139.200    22742138.654    22742138.657
        34.000          29.000
 106833726.337 8  83247082.839 8  20329765.855    20329762.336    20329764.743
        49.000          49.000
 12  1  1  0 24  0.0000000  0  9G12G18G31G11G14G25G 1G 9G22
 118535465.962 6  92365291.938 5  22556553.878    22556552.531    22556553.999
        38.000          35.100
 116592011.909 6  90850930.465 5  22186712.718    22186712.047    22186712.322
        36.000          30.100
 122287602.492 5  95289043.991 5  23270554.384    23270554.219    23270554.231
        31.000          31.000
 126657783.285 3  98694386.047 2  24102168.369    24102167.900    24102168.330
        23.800          17.000
 108712694.051 7  84711199.087 7  20687332.633    20687331.244    20687332.048
        44.000          45.000
 120341623.018 6  93772685.833 5  22900256.013    22900257.600    22900254.906
        37.000          31.000
 128217868.578 4  99910015.571 4  24399059.678    24399062.638    24399059.125
        24.900          25.900
 119614369.905 5  93206013.611 4  22761849.844    22761849.276    22761849.463
        34.000          27.100
 106852734.973 8  83261894.760 8  20333383.027    20333379.519    20333382.020
        49.000          49.000
 12  1  1  0 24 30.0000000  0  9G12G18G31G11G14G25G 1G 9G22
 118503207.760 6  92340155.709 5  22550415.238    22550414.276    22550415.309
        38.000          35.100
 116677700.132 5  90917700.452 4  22203019.324    22203017.838    22203018.405
        35.100          29.000
 122184189.906 5  95208462.828 5  23250875.581    23250875.453    23250875.373
        31.000          30.100
 126653254.521 3  98690857.165 2  24101307.156    24101305.794    24101306.641
        23.800          17.000
 108684036.463 7  84688868.514 7  20681878.974    20681877.918    20681878.568
        44.000          45.000
 120260086.608 6  93709151.035 5  22884739.248    22884742.029    22884738.870
        37.000          32.000
 128153721.543 4  99860030.917 4  24386853.015    24386855.294    24386852.577
        28.100          27.100
 119718209.475 5  93286927.548 4  22781609.964    22781609.647    22781609.348
        33.000          28.100
 106872237.283 8  83277091.357 8  20337094.220    20337090.630    20337093.169
        49.000          49.000
 12  1  1  0 25  0.0000000  0  9G12G18G31G11G14G25G 1G 9G22
 118471519.435 6  92315463.529 5  22544385.289    22544384.170    22544385.164
        38.000          34.000
 116763703.706 6  90984716.178 4  22219385.097    22219383.912    22219384.476
        36.000          29.000
 122081005.603 5  95128059.569 5  23231239.993    23231240.211    23231240.161
        31.000          31.000
 126649268.486 3  98687751.175 3  24100547.819    24100547.474    24100547.929
        23.000          19.900
 108655656.666 7  84666754.400 7  20676478.634    20676477.371    20676478.279
        44.000          45.000
 120178889.518 6  93645880.615 5  22869288.238    22869290.534    22869287.553
        39.000          32.000
 128090035.621 4  99810405.545 4  24374733.854    24374736.403    24374733.418
        27.100          25.900
 119822303.085 5  93368039.459 4  22801418.354    22801417.959    22801417.738
        32.000          28.100
 106892233.383 8  83292672.725 8  20340899.504    20340895.755    20340898.297
        49.000          49.000
 12  1  1  0 25 30.0000000  0  9G12G18G31G11G14G25G 1G 9G22
 118440402.483 6  92291216.584 5  22538463.803    22538462.654    22538463.725
        37.000          35.100
 116850021.397 5  91051976.657 4  22235810.430    22235809.671    22235810.018
        35.100          29.000
 121978051.176 5  95047835.447 5  23211648.253    23211648.493    23211648.281
        32.000          32.000
 126645824.722 4  98685067.734 3  24099892.964    24099892.240    24099892.537
        24.900          19.300
 108627554.584 7  84644856.686 7  20671131.091    20671129.690    20671130.630
        44.000          45.000
 120098034.802 6  93582876.969 5  22853902.492    22853904.362    22853901.473
        39.000          32.000
 128026812.841 4  99761141.084 4  24362702.972    24362705.851    24362702.763
        25.900          27.100
 119926648.002 5  93449347.171 4  22821274.376    22821274.053    22821274.107
        34.000          28.100
 106912723.092 8  83308638.726 8  20344798.576    20344794.880    20344797.372
        49.000          49.000
 12  1  1  0 26  0.0000000  0  9G12G18G31G11G14G25G 1G 9G22
 118409858.348 6  92267415.991 5  22532651.089    22532650.249    22532651.259
        38.000          35.100
 116936651.753 5  91119480.795 4  22252295.657    22252295.021    22252295.184
        35.100          29.000
 121875328.355 5  94967791.768 5  23192100.580    23192100.798    23192100.569
        32.000          30.100
 126642922.612 4  98682806.361 2  24099341.002    24099339.820    24099340.534
        25.900          17.800
 108599730.768 7  84623175.809 7  20665836.443    20665834.914    20665835.854
        44.000          45.000
 120017525.439 6  93520142.442 5  22838581.104    22838583.978    22838580.778
        39.000          32.000
 127964055.273 2  99712239.126 4  24350759.855    24350763.240    24350759.735
        17.800          27.100
 120031241.249 5  93530848.399 4  22841177.347    22841177.543    22841177.315
        33.000          28.100
 106933707.129 8  83324989.923 8  20348791.653    20348788.067    20348790.419
        49.000          49.000
 12  1  1  0 26 30.0000000  0  9G12G18G31G11G14G25G 1G 9G22
 118379888.993 6  92244063.290 5  22526948.721    22526947.240    22526948.447
        38.000          35.100
 117023593.296 6  91187227.398 4  22268840.598    22268839.539    22268839.885
        36.000          29.000
 121772839.199 5  94887930.149 5  23172597.464    23172597.716    23172597.675
        33.000          31.000
 126640562.094 3  98680967.014 2  24098891.286    24098890.558    24098890.899
        23.000          17.800
 108572185.421 7  84601711.922 7  20660594.614    20660593.198    20660594.107
        44.000          45.000
 119937364.525 6  93457679.427 5  22823327.007    22823329.760    22823326.539
        38.000          33.000
 127901764.916 3  99663701.213 4  24338905.856    24338910.233    24338905.669
        19.300          28.100
 120136080.175 5  93612541.063 4  22861128.341    22861127.913    22861128.053
        33.000          29.000
 106955185.503 8  83341726.314 8  20352878.992    20352875.290    20352877.561
        48.000          48.000
 12  1  1  0 27  0.0000000  0  9G12G18G31G11G14G25G 1G 9G22
 118350495.594 6  92221159.364 5  22521355.547    22521353.736    22521355.207
        38.000          34.000
 117110844.754 6  91255215.513 4  22285443.786    22285442.903    22285443.332
        36.000          28.100
 121670585.420 5  94808251.961 5  23153139.254    23153139.406    23153139.397
        34.000          31.000
 126638742.486 4  98679549.154 2  24098545.007    24098544.102    24098544.772
        24.900          17.800
 108544918.385 7  84580464.896 7  20655405.903    20655404.470    20655405.276
        44.000          45.000
 119857555.032 6  93395490.262 5  22808139.843    22808142.610    22808139.115
        38.000          33.000
 127839943.854 3  99615529.009 3  24327142.751    24327144.675    24327142.145
        21.100          23.800
 120241162.031 5  93694422.990 4  22881124.833    22881124.075    22881124.017
        32.000          27.100
 106977158.327 8  83358847.989 8  20357060.565    20357056.491    20357059.018
        48.000          48.000
 12  1  1  0 27 30.0000000  0  9G12G18G31G11G14G25G 1G 9G22
 118321679.712 6  92198705.458 5  22515872.512    22515870.321    22515871.910
        39.000          35.100
 117198404.190 6  91323443.612 5  22302106.064    22302105.147    22302105.465
        36.000          30.100
 121568568.757 5  94728758.527 5  23133725.759    23133726.202    23133726.091
        33.000          31.000
 126637463.550 4  98678552.588 2  24098301.776    24098300.820    24098301.375
        25.900          17.800
 108517930.175 7  84559435.138 7  20650270.100    20650268.807    20650269.629
        44.000          45.000
 119778099.942 6  93333577.233 5  22793019.973    22793022.714    22793019.725
        39.000          32.000
 127778594.012 2  99567723.994 4  24315468.591    24315471.015    24315467.824
        17.000          24.900
 120346483.981 5  93776492.049 4  22901166.390    22901165.975    22901166.263
        32.000          25.900
 106999625.841 8  83376355.145 8  20361335.809    20361331.857    20361334.347
        48.000          48.000
 12  1  1  0 28  0.0000000  0  9G12G18G31G11G14G25G 1G 9G22
 118293443.178 6  92176702.986 5  22510498.739    22510496.915    22510498.355
        38.000          34.000
 117286270.767 6  91391911.029 4  22318826.717    22318825.377    22318825.896
        36.000          28.100
 121466791.065 5  94649451.319 5  23114358.231    23114358.546    23114358.302
        32.000          32.000
 126636724.809 4  98677976.952 2  24098161.454    24098160.146    24098161.054
        25.900          17.000
 108491221.222 7  84538622.980 7  20645187.587    20645186.232    20645187.108
        44.000          45.000
 119699002.250 6  93271942.700 5  22777968.343    22777971.080    22777967.643
        38.000          33.000
 127717717.402 3  99520287.712 4  24303883.494    24303886.317    24303883.259
        21.100          27.100
 120452043.325 5  93858746.088 4  22921253.875    22921253.095    22921253.642
        32.000          24.900
 107022587.714 8  83394247.514 8  20365705.366    20365701.352    20365703.883
        48.000          48.000
 12  1  1  0 28 30.0000000  0  9G12G18G31G11G14G25G 1G 9G22
 118265787.283 6  92155152.950 5  22505235.525    22505233.970    22505235.446
        38.000          34.000
 117374442.727 5  91460616.406 4  22335604.937    22335604.251    22335604.308
        35.100          28.100
 121365254.267 5  94570331.818 5  23095036.574    23095036.769    23095036.707
        33.000          32.000
 126636525.813 4  98677821.925 2  24098123.967    24098122.441    24098123.681
        25.900          13.900
 108464791.154 7  84518028.133 7  20640158.100    20640156.774    20640157.625
        44.000          45.000
 119620264.968 6  93210588.991 5  22762985.588    22762987.758    22762984.425
        39.000          34.000
 127657315.944 2  99473221.678 3  24292389.175    24292392.293    24292388.336
        17.800          23.000
 120557837.215 5  93941182.890 4  22941385.950    22941385.591    22941385.514
        32.000          27.100
 107046043.926 8  83412525.080 8  20370168.680    20370165.023    20370167.415
        48.000          48.000
 12  1  1  0 29  0.0000000  0  9G12G18G31G11G14G25G 1G 9G22
 118238713.437 6  92134056.481 5  22500083.982    22500082.386    22500083.686
        38.000          35.100
 117462918.569 5  91529558.571 4  22352440.086    22352440.679    22352440.246
        35.100          29.000
 121263960.039 5  94491401.329 5  23075761.313    23075760.874    23075761.185
        34.000          33.000
 126636866.051 4  98678087.061 2  24098188.247    24098186.835    24098188.040
        24.900          17.800
 108438640.427 7  84497650.950 7  20635181.926    20635180.419    20635181.416
        44.000          46.000
 119541891.084 6  93149518.440 5  22748071.316    22748073.489    22748070.410
        39.000          33.000
 127597391.607 3  99426527.431 3  24280986.449    24280989.004    24280985.765
        19.300          23.800
 120663862.741 5  94023800.172 4  22961562.030    22961561.208    22961561.635
        32.000          25.900
 107069994.856 8  83431188.141 8  20374726.122    20374722.725    20374725.059
        48.000          48.000
 12  1  1  0 29 30.0000000  0  9G12G18G31G11G14G25G 1G 9G22
 118212223.252 6  92113414.812 5  22495043.273    22495041.399    22495042.851
        39.000          35.100
 117551696.669 5  91598736.259 4  22369335.914    22369334.510    22369334.742
        34.000          28.100
 121162910.272 5  94412661.333 5  23056531.649    23056531.816    23056531.748
        34.000          33.000
 126637744.765 4  98678771.769 2  24098354.808    24098353.600    24098354.880
        24.900          15.100
 108412769.237 7  84477491.594 7  20630258.919    20630257.277    20630258.379
        44.000          45.000
 119463883.585 6  93088733.400 5  22733226.646    22733229.344    22733226.157
        39.000          34.000
 127537946.410 3  99380206.532 4  24269674.410    24269677.359    24269674.023
        23.000          24.900
 120770117.099 5  94106595.757 4  22981781.461    22981780.807    22981780.952
        31.000          25.900
 107094440.544 8  83450236.727 8  20379378.029    20379374.584    20379376.938
        48.000          48.000
 12  1  1  0 30  0.0000000  0  9G12G18G31G11G14G25G 1G 9G22
 118186317.984 6  92093228.908 5  22490113.149    22490111.660    22490113.047
        38.000          35.100
 117640775.615 5  91668148.376 4  22386286.542    22386285.709    22386285.814
        34.000          29.000
 121062106.838 5  94334113.263 5  23037349.823    23037349.506    23037349.751
        34.000          33.000
 126639161.606 3  98679875.822 2  24098624.669    24098623.739    24098624.298
        23.000          13.900
 108387177.785 7  84457550.226 7  20625388.957    20625387.367    20625388.411
        44.000          46.000
 119386245.404 6  93028236.130 5  22718453.073    22718455.460    22718452.116
        39.000          34.000
 127478982.238 3  99334260.413 3  24258452.776    24258456.539    24258452.181
        19.300          22.100
 120876597.596 5  94189567.587 4  23002044.430    23002043.704    23002043.730
        32.000          25.900
 107119380.800 8  83469670.683 8  20384123.877    20384120.590    20384122.954
        48.000          48.000
 12  1  1  0 30 30.0000000  0  9G12G18G31G11G14G25G 1G 9G22
 118160999.057 6  92073499.901 5  22485294.972    22485293.486    22485294.873
        38.000          34.000
 117730154.042 5  91737793.867 4  22403294.410    22403293.632    22403294.306
        35.100          28.100
 120961551.525 5  94255758.539 5  23018214.327    23018214.153    23018214.364
        34.000          32.000
 126641116.061 4  98681398.790 2  24098996.780    24098995.590    24098996.631
        24.900          15.100
 108361866.193 7  84437826.924 7  20620572.376    20620570.706    20620571.792
        44.000          46.000
 119308979.496 6  92968028.942 5  22703748.834    22703751.938    22703748.750
        39.000          33.000
 127420501.018 3  99288690.635 3  24247324.882    24247327.153    24247324.730
        19.900          19.900
 120983301.463 5  94272713.463 4  23022348.520    23022348.604    23022348.529
        32.000          25.900
 107144815.712 8  83489490.079 8  20388963.702    20388960.686    20388963.074
        48.000          48.000
 12  1  1  0 31  0.0000000  0  9G12G18G31G11G14G25G 1G 9G22
 118136267.628 6  92054228.682 5  22480588.033    22480587.191    22480588.363
        38.000          35.100
 117819830.626 5  91807671.702 4  22420359.190    22420358.579    22420358.963
        34.000          28.100
 120861246.012 5  94177598.483 5  22999127.165    22999126.479    22999126.916
        34.000          33.000
 126643607.244 4  98683339.993 3  24099470.727    24099469.949    24099470.747
        24.900          19.300
 108336834.661 7  84418321.851 7  20615808.770    20615807.378    20615808.300
        44.000          46.000
 119232088.871 6  92908114.193 5  22689117.064    22689120.233    22689117.182
        40.000          33.000
 127362504.651 4  99243498.655 3  24236289.094    24236291.382    24236288.802
        24.900          19.900
 121090225.840 5  94356031.125 4  23042695.317    23042696.145    23042695.109
        31.000          27.100
 107170745.364 8  83509694.992 8  20393898.188    20393894.926    20393897.311
        48.000          48.000
 12  1  1  0 31 30.0000000  0  9G12G18G31G11G14G25G 1G 9G22
 118112124.976 6  92035416.253 5  22475994.474    22475993.399    22475994.538
        39.000          35.100
 117909803.503 5  91877780.398 4  22437481.557    22437480.154    22437480.486
        34.000          28.100
 120761192.029 5  94099634.403 5  22980087.288    22980086.959    22980087.350
        34.000          33.000
 126646634.702 3  98685699.050 2  24100046.817    24100045.586    24100046.412
        23.000          16.100
 108312083.181 7  84399034.998 7  20611098.777    20611097.350    20611098.288
        44.000          46.000
 119155576.475 6  92848494.176 5  22674558.144    22674560.333    22674557.318
        39.000          33.000
 127304995.014 4  99198685.941 3  24225344.895    24225347.829    24225344.400
        24.900          19.300
 121197368.222 5  94439518.702 3  23063084.872    23063083.588    23063084.332
        32.000          23.000
 107197169.577 8  83530285.275 8  20398926.718    20398923.360    20398925.713
        48.000          48.000
 12  1  1  0 32  0.0000000  0  9G12G18G31G11G14G25G 1G 9G22
 118088573.146 6  92017064.195 5  22471513.241    22471511.599    22471512.915
        38.000          35.100
 118000071.060 5  91948118.698 4  22454658.017    22454657.496    22454657.522
        34.000          29.000
 120661391.549 5  94021867.867 5  22961095.653    22961095.344    22961095.640
        34.000          33.000
 126650197.880 3  98688475.560 3  24100724.876    24100724.300    24100724.493
        22.100          19.300
 108287612.416 7  84379966.883 7  20606442.224    20606440.686    20606441.675
        44.000          46.000
 119079445.168 6  92789171.126 5  22660069.918    22660072.826    22660069.805
        39.000          33.000
 127247973.891 3  99154253.896 3  24214494.796    24214496.755    24214494.083
        23.000          21.100
 121304725.729 5  94523173.901 4  23083514.232    23083513.909    23083513.732
        31.000          27.100
 107224088.094 8  83551260.729 8  20404049.246    20404045.811    20404048.206
        48.000          48.000
 12  1  1  0 32 30.0000000  0  9G12G18G31G11G14G25G 1G 9G22
 118065612.974 6  91999173.185 5  22467143.444    22467142.193    22467143.326
        38.000          35.100
 118090631.949 5  92018685.579 4  22471891.912    22471890.676    22471891.017
        34.000          29.000
 120561846.185 5  93944300.115 5  22942152.971    22942152.514    22942152.910
        34.000          33.000
 126654296.273 3  98691669.133 2  24101505.181    24101503.635    24101504.780
        23.000          12.600
 108263422.102 7  84361117.309 7  20601838.783    20601837.426    20601838.342
        44.000          46.000
 119003697.897 6  92730147.330 5  22645655.733    22645658.522    22645655.317
        39.000          34.000
 127191443.229 4  99110204.053 3  24203737.339    24203739.296    24203736.820
        25.900          23.000
 121412295.789 5  94606994.703 4  23103983.482    23103983.628    23103983.208
        31.000          27.100
 107251501.567 8  83572621.868 8  20409265.730    20409262.411    20409264.781
        48.000          48.000
 12  1  1  0 33  0.0000000  0  9G12G18G31G11G14G25G 1G 9G22
 118043245.212 6  91981743.782 5  22462887.199    22462885.570    22462887.073
        38.000          35.100
 118181484.659 5  92089479.857 4  22489180.705    22489179.484    22489179.876
        34.000          28.100
 120462557.753 5  93866932.580 5  22923258.726    22923258.430    22923258.904
        35.100          32.000
 126658928.855 3  98695278.960 2  24102386.460    24102385.700    24102386.184
        23.800          16.100
 108239512.751 7  84342486.663 7  20597289.218    20597287.594    20597288.660
        44.000          46.000
 118928337.589 6  92671425.043 5  22631316.204    22631318.048    22631315.125
        40.000          34.000
 127135404.822 3  99066537.743 3  24193073.277    24193075.685    24193072.663
        23.000          23.800
 121520075.687 5  94690979.048 4  23124494.039    23124493.179    23124493.623
        32.000          25.900
 107279409.283 8  83594368.132 8  20414576.595    20414573.157    20414575.539
        48.000          48.000
 12  1  1  0 33 30.0000000  0  9G12G18G31G11G14G25G 1G 9G22
 118021471.593 6  91964777.341 5  22458743.603    22458742.390    22458743.804
        39.000          35.100
 118272627.400 5  92160500.132 4  22506522.919    22506523.367    22506523.194
        34.000          27.100
 120363527.838 5  93789766.479 5  22904414.200    22904413.635    22904413.931
        34.000          33.000
 126664094.861 3  98699304.421 2  24103368.696    24103368.635    24103368.664
        22.100          13.900
 108215884.469 7  84324075.028 7  20592792.836    20592791.243    20592792.303
        44.000          46.000
 118853367.092 6  92613006.515 5  22617048.476    22617051.397    22617048.428
        40.000          33.000
 127079860.394 3  99023256.430 3  24182503.230    24182505.985    24182502.605
        23.000          23.000
 121628062.655 5  94775124.740 3  23145042.916    23145042.325    23145042.380
        30.100          23.800
 107307811.195 8  83616499.479 8  20419981.447    20419977.832    20419980.148
        48.000          48.000
 12  1  1  0 34  0.0000000  0  9G12G18G31G11G14G25G 1G 9G22
 118000293.430 6  91948274.899 5  22454713.657    22454712.230    22454713.598
        39.000          35.100
 118364058.950 5  92231745.460 4  22523923.103    22523922.278    22523922.376
        33.000          25.900
 120264758.310 5  93712803.278 5  22885618.800    22885618.600    22885618.740
        34.000          34.000
 126669793.715 3  98703745.095 2  24104453.198    24104452.343    24104453.092
        22.100          15.100
 108192537.299 7  84305882.442 7  20588349.907    20588348.381    20588349.408
        44.000          46.000
 118778789.368 6  92554894.038 5  22602857.426    22602860.031    22602856.681
        40.000          34.000
 127024811.906 3  98980361.476 4  24172027.770    24172030.837    24172027.374
        23.000          24.900
 121736253.995 5  94859429.662 3  23165630.104    23165630.610    23165630.513
        30.100          23.000
 107336707.294 8  83639015.920 7  20425480.038    20425476.536    20425478.934
        48.000          47.000
 12  1  1  0 34 30.0000000  0  9G12G18G31G11G14G25G 1G 9G22
 117979711.451 6  91932237.004 5  22450797.030    22450795.645    22450796.865
        39.000          35.100
 118455777.054 5  92303214.065 4  22541375.901    22541375.609    22541375.520
        33.000          25.900
 120166250.850 5  93636044.290 5  22866873.752    22866872.986    22866873.529
        35.100          33.000
 126676024.694 3  98708600.402 2  24105640.028    24105638.158    24105639.636
        23.800          13.900
 108169471.487 7  84287909.096 7  20583960.618    20583959.124    20583960.156
        43.000          46.000
 118704607.233 6  92497089.827 5  22588740.801    22588743.555    22588740.326
        40.000          35.100
 126970260.992 4  98937854.343 4  24161647.397    24161650.643    24161646.939
        24.900          28.100
 121844646.879 5  94943891.673 4  23186257.621    23186257.337    23186257.313
        31.000          24.900
 107366097.498 8  83661917.373 7  20431073.138    20431069.203    20431071.875
        48.000          47.000
 12  1  1  0 35  0.0000000  0  9G12G18G31G11G14G25G 1G 9G22
 117959727.365 6  91916665.011 5  22446994.588    22446992.863    22446994.147
        39.000          35.100
 118547780.801 5  92374905.256 4  22558883.878    22558883.597    22558883.631
        33.000          28.100
 120068007.425 5  93559491.043 5  22848178.071    22848177.943    22848178.084
        34.000          34.000
 126682786.941 3  98713869.692 2  24106926.383    24106925.216    24106926.078
        23.800          12.600
 108146687.322 7  84270155.214 7  20579624.961    20579623.419    20579624.422
        44.000          46.000
 118630823.586 6  92439596.118 5  22574699.765    22574702.774    22574699.734
        40.000          34.000
 126916209.513 3  98895736.327 4  24151362.029    24151363.827    24151361.586
        23.800          24.900
 121953238.730 5  95028508.681 4  23206921.745    23206921.547    23206921.285
        30.100          24.900
 107395981.525 8  83685203.624 7  20436759.663    20436755.980    20436758.481
        48.000          47.000
 12  1  1  0 35 30.0000000  0  9G12G18G31G11G14G25G 1G 9G22
 117940342.188 6  91901559.705 5  22443305.204    22443303.822    22443305.024
        39.000          35.100
 118640068.625 5  92446817.796 4  22576446.333    22576445.142    22576445.393
        33.000          25.900
 119970029.536 5  93483144.710 5  22829533.895    22829533.220    22829533.664
        35.100          34.000
 126690079.885 3  98719552.515 2  24108314.436    24108312.956    24108314.209
        23.800          15.100
 108124185.072 7  84252621.000 7  20575342.921    20575341.346    20575342.390
        44.000          46.000
 118557441.321 6  92382415.172 5  22560736.594    22560738.632    22560735.799
        40.000          34.000
 126862659.203 3  98854008.818 4  24141170.779    24141174.274    24141170.506
        21.100          25.900
 122062027.176 4  95113278.910 4  23227622.316    23227623.132    23227622.605
        29.000          24.900
 107426359.289 8  83708874.605 7  20442540.354    20442536.715    20442539.223
        48.000          47.000
 12  1  1  0 36  0.0000000  0 10G32G12G18G31G11G14G25G 1G 9G22
 130350451.886 2 101571780.348 2  24804868.254    24804868.566    24804866.644
        17.800          15.100
 117921556.790 6  91886921.747 5  22439730.444    22439729.123    22439730.234
        38.000          35.100
 118732638.658 5  92518950.220 4  22594061.462    22594060.685    22594060.878
        33.000          25.900
 119872318.816 5  93407006.551 5  22810939.799    22810939.122    22810939.726
        35.100          34.000
 126697902.566 3  98725648.106 2  24109802.627    24109801.712    24109802.308
        23.800          16.100
 108101964.807 7  84235306.516 7  20571114.653    20571113.004    20571114.080
        44.000          46.000
 118484463.243 6  92325549.166 5  22546848.547    22546851.188    22546848.141
        40.000          34.000
 126809611.742 3  98812673.190 4  24131076.146    24131079.645    24131075.741
        23.000          27.100
 122171008.969 4  95198199.765 3  23248361.877    23248361.440    23248361.316
        29.000          23.800
 107457230.633 8  83732930.188 7  20448415.028    20448411.374    20448413.832
        48.000          47.000
 12  1  1  0 36 30.0000000  0 10G32G12G18G31G11G14G25G 1G 9G22
 130253116.056 3 101495934.307 3  24786343.883    24786345.851    24786343.675
        19.300          21.100
 117903372.249 6  91872752.001 5  22436270.493    22436268.687    22436270.137
        39.000          35.100
 118825489.288 5  92591301.305 4  22611730.062    22611729.646    22611729.896
        33.000          27.100
 119774877.215 6  93331078.102 5  22792397.153    22792396.543    22792397.152
        36.000          34.000
 126706254.288 4  98732155.937 2  24111392.222    24111390.723    24111391.820
        24.900          17.000
 108080026.679 7  84218211.881 7  20566939.852    20566938.344    20566939.367
        44.000          46.000
 118411892.204 6  92269000.349 5  22533038.801    22533041.313    22533038.230
        40.000          34.000
 126757068.892 4  98771730.753 4  24121078.520    24121080.640    24121078.049
        25.900          25.900
 122280181.590 5  95283269.376 4  23269137.316    23269136.398    23269136.894
        31.000          24.900
 107488595.061 8  83757369.991 7  20454383.596    20454379.792    20454382.335
        48.000          47.000
 12  1  1  0 37  0.0000000  0 10G32G12G18G31G11G14G25G 1G 9G22
 130155855.689 3 101420147.113 3  24767837.941    24767838.061    24767836.238
        22.100          22.100
 117885789.737 6  91859051.358 5  22432924.513    22432922.610    22432924.248
        39.000          35.100
 118918619.175 5  92663869.997 4  22629453.139    22629451.709    22629452.178
        33.000          27.100
 119677706.391 5  93255360.645 5  22773905.756    22773905.690    22773905.870
        35.100          34.000
 126715133.977 3  98739075.183 2  24113081.878    24113080.543    24113081.638
        23.800          12.600
 108058371.028 7  84201337.354 7  20562818.865    20562817.328    20562818.426
        44.000          46.000
 118339731.073 6  92212770.930 5  22519307.516    22519309.651    22519306.659
        40.000          35.100
 126705032.341 3  98731182.789 4  24111175.468    24111178.897    24111175.046
        22.100          25.900
 122389542.628 4  95368485.757 4  23289947.293    23289947.663    23289947.129
        29.000          24.900
 107520452.686 8  83782194.102 7  20460445.773    20460442.116    20460444.544
        48.000          47.000
 12  1  1  0 37 30.0000000  0 10G32G12G18G31G11G14G25G 1G 9G22
 130058672.548 3 101344420.070 3  24749344.708    24749344.269    24749343.108
        21.100          19.300
 117868809.923 6  91845820.351 5  22429693.445    22429691.542    22429693.064
        39.000          35.100
 119012026.417 5  92736654.812 4  22647227.959    22647226.716    22647227.119
        32.000          27.100
 119580807.794 5  93179855.318 5  22755466.594    22755466.335    22755466.506
        35.100          34.000
 126724540.657 3  98746405.085 2  24114872.010    24114870.511    24114871.542
        23.000          15.100
 108036998.058 7  84184683.099 7  20558751.819    20558750.203    20558751.375
        44.000          46.000
 118267982.615 6  92156863.092 5  22505653.500    22505656.238    22505653.249
        41.000          34.000
 126653503.695 4  98691030.642 4  24101370.574    24101373.050    24101370.051
        24.900          24.900
 122499089.333 5  95453846.792 4  23310794.057    23310793.774    23310793.586
        30.100          24.900
 107552803.235 8  83807402.317 7  20466601.988    20466598.245    20466600.707
        48.000          47.000
 12  1  1  0 38  0.0000000  0 10G32G12G18G31G11G14G25G 1G 9G22
 129961568.350 3 101268754.495 2  24730866.872    24730865.847    24730864.999
        21.100          17.800
 117852434.431 6  91833060.240 5  22426576.991    22426575.470    22426576.791
        39.000          35.100
 119105709.314 5  92809654.419 4  22665054.691    22665053.877    22665054.076
        32.000          25.900
 119484183.553 5  93104563.764 5  22737079.723    22737079.163    22737079.802
        35.100          33.000
 126734473.727 3  98754145.126 3  24116762.177    24116761.612    24116761.813
        21.100          19.300
 108015907.756 7  84168249.103 7  20554738.406    20554736.859    20554737.935
        44.000          46.000
 118196649.672 6  92101279.013 5  22492079.931    22492082.052    22492079.277
        41.000          34.000
 126602484.683 3  98651275.610 4  24091661.086    24091664.535    24091661.038
        23.800          27.100
 122608818.868 4  95539350.359 3  23331674.353    23331673.917    23331674.260
        29.000          22.100
 107585646.408 8  83832994.392 7  20472851.918    20472848.108    20472850.535
        48.000          47.000
 12  1  1  0 38 30.0000000  0 10G32G12G18G31G11G14G25G 1G 9G22
 129864544.857 3 101193151.827 3  24712402.597    24712402.609    24712401.182
        22.100          19.900
 117836664.106 6  91820771.689 5  22423575.881    22423574.436    22423575.766
        39.000          35.100
 119199666.456 5  92882867.725 4  22682934.347    22682933.472    22682933.536
        32.000          25.900
 119387835.073 6  93029487.093 5  22718745.467    22718744.650    22718745.417
        36.000          34.000
 126744931.935 3  98762294.380 3  24118751.719    24118751.632    24118751.611
        23.000          19.300
 107995100.362 7  84152035.556 7  20550779.009    20550777.271    20550778.363
        44.000          46.000
 118125735.020 6  92046020.885 5  22478585.165    22478587.471    22478584.573
        41.000          34.000
 126551976.998 4  98611918.973 4  24082050.094    24082053.152    24082049.762
        24.900          25.900
 122718728.820 5  95624994.463 4  23352589.823    23352589.561    23352589.244
        31.000          24.900
 107618982.139 7  83858970.285 7  20479195.505    20479191.730    20479194.010
        47.000          47.000
 12  1  1  0 39  0.0000000  0 10G32G12G18G31G11G14G25G 1G 9G22
 129767603.718 3 101117613.344 3  24693954.836    24693954.973    24693953.813
        23.000          19.300
 117821499.709 6  91808955.284 6  22420690.724    22420688.767    22420690.325
        39.000          36.000
 119293896.204 5  92956293.452 4  22700865.263    22700864.965    22700864.823
        32.000          25.900
 119291763.975 6  92954626.550 5  22700463.679    22700462.864    22700463.605
        36.000          34.000
 126755914.428 3  98770852.169 3  24120842.486    24120840.903    24120841.903
        23.000          19.300
 107974576.178 7  84136042.689 7  20546873.218    20546871.624    20546872.714
        44.000          46.000
 118055241.428 6  91991090.855 5  22465170.324    22465173.053    22465169.938
        41.000          35.100
 126501982.157 3  98572961.950 3  24072536.533    24072538.776    24072536.066
        23.800          23.000
 122828816.571 4  95710777.117 3  23373538.518    23373538.142    23373538.491
        29.000          23.000
 107652809.794 7  83885329.494 7  20485632.511    20485628.921    20485631.102
        47.000          47.000
 12  1  1  0 39 30.0000000  0 10G32G12G18G31G11G14G25G 1G 9G22
 129670746.770 3 101042140.436 2  24675523.455    24675524.053    24675522.495
        22.100          16.100
 117806941.994 6  91797611.622 5  22417919.700    22417918.278    22417919.783
        39.000          35.100
 119388396.762 5  93029930.223 4  22718847.971    22718847.936    22718847.452
        32.000          25.900
 119195972.184 6  92879983.657 5  22682234.928    22682234.440    22682234.967
        36.000          35.100
 126767420.375 3  98779817.860 2  24123031.824    24123030.666    24123031.369
        23.000          15.100
 107954335.627 7  84120270.838 7  20543021.644    20543019.993    20543021.109
        44.000          46.000
 117985171.713 6  91936491.112 5  22451836.721    22451838.898    22451836.068
        41.000          35.100
 126452501.782 3  98534405.838 4  24063119.775    24063123.029    24063119.154
        19.300          25.900
 122939079.554 5  95796696.333 3  23394520.899    23394520.973    23394520.936
        31.000          23.800
 107687129.051 7  83912071.763 7  20492163.347    20492159.638    20492161.870
        47.000          46.000
 12  1  1  0 40  0.0000000  0 10G32G12G18G31G11G14G25G 1G 9G22
 129573975.753 3 100966734.485 2  24657108.728    24657109.315    24657108.211
        22.100          17.000
 117792991.775 6  91786741.329 5  22415265.208    22415263.741    22415265.217
        39.000          35.100
 119483166.370 5  93103776.608 4  22736882.863    22736882.170    22736882.010
        32.000          27.100
 119100461.069 6  92805559.476 5  22664059.688    22664059.141    22664059.798
        36.000          35.100
 126779448.615 3  98789190.509 3  24125320.692    24125319.799    24125320.073
        22.100          19.900
 107934378.508 7  84104719.843 7  20539223.898    20539222.349    20539223.456
        44.000          46.000
 117915528.617 6  91882223.802 5  22438584.090    22438586.333    22438583.597
        41.000          35.100
 126403537.452 3  98496251.861 4  24053802.811    24053805.969    24053802.395
        23.000          24.900
 123049515.137 4  95882750.042 4  23415535.720    23415536.310    23415535.602
        27.100          24.900
 107721939.795 7  83939197.006 7  20498787.611    20498783.884    20498786.157
        47.000          46.000
 12  1  1  0 40 30.0000000  0 10G32G12G18G31G11G14G25G 1G 9G22
 129477292.399 3 100891396.823 2  24638711.370    24638711.432    24638710.252
        23.800          17.800
 117779650.156 6  91776345.283 5  22412726.354    22412724.943    22412726.289
        39.000          35.100
 119578203.787 5  93177831.706 4  22754967.590    22754967.068    22754967.024
        32.000          27.100
 119005232.356 6  92731355.343 5  22645938.338    22645937.622    22645938.374
        37.000          35.100
 126791998.413 3  98798969.610 2  24127708.534    24127707.752    24127708.251
        22.100          17.800
 107914705.376 7  84089390.132 7  20535480.236    20535478.656    20535479.651
        43.000          46.000
 117846314.865 7  91828291.041 5  22425413.438    22425415.117    22425412.499
        42.000          35.100
 126355090.847 3  98458501.242 4  24044584.293    24044586.468    24044583.767
        23.000          24.900
 123160120.752 4  95968936.214 3  23436583.891    23436583.627    23436583.629
        29.000          23.000
 107757241.805 7  83966705.052 7  20505505.445    20505501.649    20505504.069
        47.000          46.000
 12  1  1  0 41  0.0000000  0 10G32G12G18G31G11G14G25G 1G 9G22
 129380698.515 3 100816128.882 3  24620329.536    24620330.224    24620329.057
        23.800          21.100
 117766918.380 6  91766424.430 5  22410303.601    22410302.436    22410303.541
        39.000          35.100
 119673506.875 5  93252093.815 4  22773102.375    22773102.435    22773102.521
        31.000          24.900
 118910287.456 6  92657372.361 6  22627870.932    22627870.076    22627870.918
        37.000          36.000
 126805068.522 3  98809154.112 2  24130195.756    24130194.570    24130195.424
        22.100          17.000
 107895316.288 7  84074281.753 7  20531790.638    20531788.933    20531790.171
        44.000          47.000
 117777533.223 6  91774694.977 5  22412324.415    22412326.191    22412323.745
        41.000          35.100
 126307163.325 3  98421155.197 3  24035464.185    24035466.283    24035463.590
        21.100          23.800
 123270893.768 4  96055252.858 3  23457663.599    23457662.681    23457663.224
        29.000          19.900
 107793034.772 7  83994595.663 7  20512316.698    20512312.784    20512315.207
        47.000          46.000
 12  1  1  0 41 30.0000000  0 10G32G12G18G31G11G14G25G 1G 9G22
 129284195.809 3 100740932.040 3  24601966.032    24601966.603    24601964.904
        22.100          21.100
 117754796.695 6  91756978.984 6  22407996.823    22407995.481    22407996.799
        39.000          36.000
 119769074.227 5  93326561.840 4  22791289.166    22791288.221    22791288.306
        30.100          24.900
 118815628.343 6  92583612.074 5  22609858.122    22609857.032    22609858.051
        37.000          35.100
 126818657.811 3  98819743.169 2  24132781.575    24132780.676    24132781.108
        21.100          17.800
 107876211.492 7  84059394.898 7  20528155.227    20528153.448    20528154.651
        43.000          46.000
 117709186.425 6  91721437.777 5  22399318.109    22399320.539    22399317.632
        41.000          35.100
 126259756.590 3  98384214.911 4  24026441.915    24026445.332    24026441.875
        22.100          25.900
 123381831.479 4  96141697.836 3  23478774.178    23478773.509    23478773.972
        29.000          23.000
 107829318.015 7  84022868.307 7  20519221.278    20519217.274    20519219.692
        47.000          46.000
 12  1  1  0 42  0.0000000  0 10G32G12G18G31G11G14G25G 1G 9G22
 129187786.086 4 100665807.618 2  24583619.350    24583619.993    24583618.722
        25.900          17.000
 117743286.257 6  91748009.831 5  22405806.364    22405805.142    22405806.407
        39.000          35.100
 119864904.211 5  93401234.502 4  22809524.582    22809524.527    22809524.189
        30.100          24.900
 118721256.586 6  92510075.698 5  22591899.224    22591898.877    22591899.356
        37.000          35.100
 126832765.302 3  98830736.002 3  24135466.984    24135465.253    24135466.247
        22.100          22.100
 107857391.113 7  84044729.671 7  20524573.697    20524572.056    20524573.140
        43.000          47.000
 117641277.124 6  91668521.482 6  22386395.872    22386398.065    22386395.049
        41.000          36.000
 126212872.082 4  98347681.556 4  24017521.294    24017523.430    24017520.573
        24.900          27.100
 123492931.104 4  96228268.967 3  23499915.900    23499915.424    23499915.566
        29.000          23.000
 107866091.171 7  84051522.701 7  20526218.884    20526215.036    20526217.401
        47.000          46.000
 12  1  1  0 42 30.0000000  0 10G32G12G18G31G11G14G25G 1G 9G22
 129091471.114 3 100590757.019 3  24565291.405    24565291.532    24565290.795
        22.100          22.100
 117732387.772 6  91739517.523 5  22403732.292    22403731.214    22403732.415
        39.000          35.100
 119960995.116 5  93476110.492 3  22827810.770    22827810.013    22827810.099
        32.000          23.800
 118627173.709 6  92436764.414 5  22573995.868    22573995.471    22573995.825
        37.000          35.100
 126847389.972 3  98842131.859 3  24138248.894    24138248.658    24138248.708
        21.100          19.900
 107838855.294 7  84030286.186 7  20521046.470    20521044.788    20521045.974
        43.000          47.000
 117573808.065 7  91615948.204 5  22373556.162    22373558.821    22373556.003
        42.000          35.100
 126166511.327 3  98311556.335 4  24008698.149    24008701.452    24008697.805
        23.800          27.100
 123604190.252 4  96314964.425 3  23521087.769    23521086.892    23521087.435
        27.100          21.100
 107903353.796 7  84080558.496 7  20533309.695    20533305.835    20533308.244
        47.000          46.000
 12  1  1  0 43  0.0000000  0 10G32G12G18G31G11G14G25G 1G 9G22
 128995252.671 4 100515781.670 3  24546981.809    24546981.259    24546980.990
        27.100          19.300
 117722101.640 6  91731502.381 5  22401775.360    22401773.818    22401775.066
        39.000          35.100
 120057344.894 5  93551188.181 4  22846145.730    22846144.854    22846144.742
        31.000          24.900
 118533381.265 6  92363679.456 5  22556147.803    22556147.299    22556147.884
        37.000          35.100
 126862530.645 3  98853929.807 3  24141130.490    24141129.373    24141130.120
        21.100          19.900
 107820604.323 7  84016064.656 7  20517573.386    20517571.765    20517572.823
        43.000          47.000
 117506781.927 7  91563720.067 5  22360801.828    22360804.377    22360801.437
        42.000          35.100
 126120675.805 3  98275840.371 4  23999976.319    23999979.430    23999975.931
        23.800          28.100
 123715606.422 4  96401782.222 3  23542289.715    23542289.210    23542288.892
        25.900          23.000
 107941105.594 7  84109975.466 7  20540493.448    20540489.782    20540492.204
        47.000          46.000
 12  1  1  0 43 30.0000000  0 10G32G12G18G31G11G14G25G 1G 9G22
 128899132.647 4 100440882.947 3  24528689.815    24528690.091    24528689.160
        24.900          19.300
 117712428.491 6  91723964.872 5  22399934.265    22399933.142    22399934.156
        39.000          35.100
 120153952.377 5  93626466.698 3  22864528.662    22864528.760    22864528.382
        30.100          23.800
 118439881.214 6  92290822.336 6  22538355.378    22538354.600    22538355.257
        36.000          36.000
 126878186.123 3  98866128.901 3  24144108.971    24144108.579    24144108.592
        19.300          19.900
 107802638.303 7  84002065.170 7  20514154.529    20514152.922    20514153.934
        43.000          47.000
 117440201.389 7  91511839.164 5  22348132.564    22348134.356    22348131.684
        42.000          35.100
 126075366.932 4  98240534.796 4  23991353.917    23991357.088    23991353.879
        24.900          25.900
 123827177.121 4  96488720.427 3  23563520.790    23563520.660    23563520.320
        28.100          22.100
 107979346.271 7  84139773.374 7  20547770.552    20547766.762    20547769.291
        47.000          46.000
 12  1  1  0 44  0.0000000  0 10G32G12G18G31G11G14G25G 1G 9G22
 128803112.727 3 100366062.326 3  24510417.719    24510418.362    24510417.242
        22.100          22.100
 117703369.545 6  91716905.965 6  22398210.736    22398209.295    22398210.439
        39.000          36.000
 120250815.540 5  93701944.433 4  22882962.042    22882961.458    22882960.953
        30.100          25.900
 118346674.808 6  92218194.040 6  22520618.906    22520617.866    22520618.646
        37.000          36.000
 126894355.420 3  98878728.361 2  24147186.111    24147185.068    24147186.131
        23.000          17.000
 107784957.388 7  83988287.836 7  20510789.943    20510788.334    20510789.459
        43.000          47.000
 117374069.106 7  91460307.552 6  22335547.179    22335549.810    22335547.019
        42.000          36.000
 126030586.142 4  98205640.695 3  23982832.766    23982835.250    23982832.120
        24.900          23.800
 123938899.722 4  96575776.988 3  23584780.181    23584780.731    23584779.965
        27.100          23.000
 108018075.289 7  84169951.819 7  20555140.286    20555136.705    20555139.182
        47.000          46.000
 12  1  1  0 44 30.0000000  0 10G32G12G18G31G11G14G25G 1G 9G22
 128707194.765 4 100291321.109 3  24492165.826    24492165.864    24492164.918
        25.900          22.100
 117694925.031 6  91710325.839 6  22396604.058    22396602.262    22396603.733
        39.000          36.000
 120347932.633 5  93777620.031 4  22901442.398    22901442.140    22901441.757
        30.100          24.900
 118253763.662 6  92145795.808 5  22502938.398    22502937.344    22502938.345
        37.000          35.100
 126911037.163 3  98891727.139 3  24150360.885    24150360.142    24150360.835
        23.000          19.900
 107767562.007 7  83974732.991 7  20507479.669    20507478.216    20507479.259
        43.000          47.000
 117308387.729 7  91409127.284 6  22323049.489    22323051.315    22323048.231
        42.000          37.000
 125986334.841 4  98171159.193 3  23974412.278    23974414.560    23974411.550
        24.900          23.000
 124050771.815 4  96662950.022 3  23606069.302    23606068.925    23606068.737
        27.100          22.100
 108057292.215 7  84200510.446 7  20562603.284    20562599.455    20562602.012
        47.000          46.000
 12  1  1  0 45  0.0000000  0 10G32G12G18G31G11G14G25G 1G 9G22
 128611380.591 3 100216660.776 3  24473932.754    24473933.386    24473931.774
        19.300          23.000
 117687095.743 6  91704225.096 5  22395114.133    22395112.348    22395113.744
        39.000          35.100
 120445301.816 5  93853492.075 4  22919970.893    22919970.845    22919970.326
        30.100          24.900
 118161149.508 6  92073628.983 6  22485314.491    22485313.412    22485314.357
        37.000          36.000
 126928230.212 4  98905124.307 3  24153632.488    24153632.072    24153632.292
        24.900          21.100
 107750452.603 7  83961400.988 7  20504224.027    20504222.411    20504223.500
        43.000          47.000
 117243159.888 7  91358300.451 6  22310635.916    22310638.660    22310635.662
        42.000          36.000
 125942614.452 4  98137091.390 3  23966091.553    23966094.268    23966091.543
        24.900          22.100
 124162790.831 4  96750237.586 3  23627386.549    23627385.239    23627386.051
        29.000          21.100
 108096996.481 7  84231448.819 7  20570158.430    20570154.991    20570157.440
        47.000          46.000
 12  1  1  0 45 30.0000000  0 10G32G12G18G31G11G14G25G 1G 9G22
 128515671.957 3 100142082.760 3  24455721.117    24455719.997    24455719.638
        23.000          22.100
 117679882.552 6  91698604.439 6  22393741.762    22393739.821    22393741.260
        39.000          36.000
 120542921.538 5  93929559.350 4  22938547.821    22938547.339    22938547.261
        30.100          24.900
 118068833.815 6  92001694.733 6  22467746.954    22467746.423    22467747.142
        38.000          36.000
 126945933.303 3  98918918.922 3  24157001.916    24157000.366    24157001.699
        23.800          19.900
 107733629.090 7  83948291.755 7  20501022.561    20501021.000    20501022.037
        43.000          47.000
 117178388.209 7  91307829.057 6  22298311.119    22298312.923    22298310.112
        42.000          36.000
 125899426.375 4  98103438.345 3  23957873.991    23957875.772    23957873.455
        27.100          23.800
 124274954.373 4  96837637.780 3  23648730.050    23648729.255    23648729.869
        25.900          23.000
 108137187.535 7  84262766.506 7  20577806.715    20577803.107    20577805.595
        47.000          46.000
 12  1  1  0 46  0.0000000  0 10G32G12G18G31G11G14G25G 1G 9G22
 128420070.834 3 100067588.414 3  24437528.061    24437527.575    24437526.699
        23.800          21.100
 117673285.552 6  91693463.936 5  22392485.406    22392484.152    22392485.546
        39.000          35.100
 120640790.184 5  94005820.563 3  22957171.149    22957171.010    22957170.748
        30.100          23.800
 117976818.065 6  91929994.192 6  22450236.950    22450236.406    22450237.024
        39.000          36.000
 126964145.194 3  98933110.019 3  24160467.808    24160465.922    24160467.173
        23.800          21.100
 107717091.633 7  83935405.423 7  20497875.437    20497874.032    20497874.995
        43.000          47.000
 117114075.270 7  91257715.124 6  22286072.478    22286074.467    22286071.797
        42.000          36.000
 125856771.887 4  98070201.130 4  23949756.776    23949759.232    23949756.485
        25.900          25.900
 124387259.964 3  96925148.602 3  23670100.528    23670100.340    23670099.987
        23.800          22.100
 108177865.030 7  84294463.231 7  20585547.406    20585543.767    20585546.184
        47.000          45.000
 12  1  1  0 46 30.0000000  0 10G32G12G18G31G11G14G25G 1G 9G22
 128324578.895 3  99993179.208 3  24419356.256    24419355.585    24419355.327
        23.800          19.900
 117667305.359 6  91688804.065 6  22391347.880    22391346.192    22391347.601
        39.000          36.000
 120738905.714 4  94082274.190 3  22975841.851    22975841.840    22975841.651
        29.000          23.800
 117885103.810 6  91858528.593 6  22432784.138    22432783.815    22432784.352
        38.000          36.000
 126982864.686 3  98947696.645 3  24164029.415    24164028.358    24164029.034
        23.800          22.100
 107700840.361 7  83922742.093 7  20494783.054    20494781.506    20494782.500
        43.000          47.000
 117050223.679 7  91207960.684 6  22273922.216    22273923.717    22273921.251
        42.000          36.000
 125814652.392 4  98037380.750 4  23941741.832    23941744.394    23941741.669
        27.100          24.900
 124499704.873 4  97012767.999 3  23691499.437    23691498.266    23691498.197
        27.100          22.100
 108219028.484 7  84326538.627 7  20593380.257    20593376.922    20593379.336
        47.000          45.000
 12  1  1  0 47  0.0000000  0 10G32G12G18G31G11G14G25G 1G 9G22
 128229198.020 4  99918856.522 2  24401205.520    24401204.775    24401204.911
        27.100          12.600
 117661942.504 6  91684625.242 5  22390326.930    22390325.568    22390327.029
        39.000          35.100
 120837266.656 4  94158919.011 3  22994560.104    22994559.020    22994559.170
        29.000          23.800
 117793692.706 6  91787299.212 6  22415389.262    22415388.767    22415389.170
        37.000          37.000
 127002090.622 3  98962677.928 3  24167687.241    24167686.912    24167686.995
        21.100          22.100
 107684875.861 7  83910302.222 7  20491745.019    20491743.521    20491744.508
        43.000          47.000
 116986836.009 7  91158567.741 6  22261859.071    22261861.363    22261858.663
        43.000          36.000
 125773069.183 4  98004978.275 4  23933828.512    23933831.670    23933828.202
        24.900          25.900
 124612286.658 4  97100494.062 3  23712921.997    23712921.785    23712921.808
        28.100          22.100
 108260677.279 7  84358992.217 7  20601305.705    20601302.395    20601304.841
        47.000          45.000
 12  1  1  0 47 30.0000000  0 10G32G12G18G31G11G14G25G 1G 9G22
 128133930.109 4  99844621.763 3  24383076.786    24383076.715    24383076.321
        28.100          19.300
 117657197.948 6  91680928.190 5  22389424.284    22389422.824    22389424.321
        39.000          35.100
 120935871.005 4  94235753.513 3  23013323.265    23013323.062    23013323.055
        29.000          23.800
 117702586.261 6  91716307.227 6  22398051.925    22398051.905    22398052.094
        38.000          37.000
 127021821.698 3  98978052.782 3  24171442.125    24171441.693    24171441.400
        19.900          19.900
 107669198.156 7  83898085.834 7  20488761.673    20488760.155    20488761.189
        43.000          47.000
 116923914.820 7  91109538.295 6  22249885.807    22249887.917    22249885.016
        42.000          36.000
 125732023.561 4  97972994.700 4  23926018.593    23926021.049    23926017.714
        24.900          27.100
 124725002.993 4  97188324.952 3  23734371.911    23734371.133    23734371.274
        25.900          22.100
 108302810.520 7  84391823.292 7  20609323.243    20609320.112    20609322.433
        47.000          45.000
 12  1  1  0 48  0.0000000  0 10G32G12G18G31G11G14G25G 1G 9G22
 128038776.952 4  99770476.542 3  24364969.340    24364970.034    24364968.449
        27.100          21.100
 117653071.598 6  91677712.857 5  22388638.969    22388637.618    22388639.047
        39.000          35.100
 121034717.072 4  94312776.377 3  23032134.316    23032133.258    23032133.234
        29.000          23.800
 117611786.053 6  91645553.875 6  22380773.608    22380773.140    22380773.475
        38.000          37.000
 127042056.353 3  98993820.055 3  24175292.561    24175292.337    24175292.509
        22.100          22.100
 107653807.431 7  83886093.063 7  20485832.966    20485831.382    20485832.449
        43.000          47.000
 116861462.624 7  91060874.292 6  22238000.945    22238003.652    22238000.825
        42.000          36.000
 125691516.790 4  97941431.009 4  23918310.107    23918312.556    23918309.729
        27.100          24.900
 124837851.289 4  97276258.694 3  23755845.896    23755845.438    23755845.518
        27.100          22.100
 108345427.811 7  84425031.544 7  20617432.916    20617429.956    20617432.168
        47.000          45.000
 12  1  1  0 48 30.0000000  0 10G32G12G18G31G11G14G25G 1G 9G22
 127943740.443 4  99696422.173 2  24346884.186    24346884.578    24346883.486
        25.900          17.000
 117649564.073 6  91674979.729 5  22387971.372    22387970.130    22387971.334
        39.000          35.100
 121133803.051 4  94389986.153 4  23050988.496    23050988.496    23050988.357
        29.000          24.900
 117521293.465 6  91575040.218 6  22363553.310    22363552.566    22363553.362
        38.000          37.000
 127062793.236 3  99009978.696 3  24179238.145    24179238.255    24179238.540
        23.800          19.900
 107638704.131 7  83874324.262 7  20482958.730    20482957.320    20482958.301
        43.000          47.000
 116799481.986 7  91012577.745 6  22226206.920    22226208.942    22226206.211
        43.000          36.000
 125651550.156 4  97910288.203 3  23910704.698    23910706.359    23910703.978
        25.900          22.100
 124950829.209 4  97364293.451 3  23777345.076    23777344.177    23777344.773
        27.100          19.300
 108388528.859 7  84458616.757 7  20625634.627    20625631.820    20625634.123
        47.000          45.000
 12  1  1  0 49  0.0000000  0 10G32G12G18G31G11G14G25G 1G 9G22
 127848822.391 4  99622460.096 3  24328821.456    24328822.291    24328820.971
        27.100          23.000
 117646676.119 6  91672729.390 5  22387422.089    22387420.539    22387421.949
        39.000          35.100
 121233127.337 4  94467381.627 3  23069889.628    23069889.514    23069889.079
        29.000          23.800
 117431110.002 6  91504767.433 6  22346392.302    22346391.233    22346392.000
        38.000          36.000
 127084031.034 3  99026527.643 3  24183280.953    24183280.125    24183280.352
        23.000          22.100
 107623888.082 7  83862779.288 7  20480139.439    20480137.964    20480138.994
        43.000          47.000
 116737975.411 7  90964650.587 6  22214502.684    22214504.517    22214502.105
        43.000          36.000
 125612124.841 4  97879567.196 4  23903202.513    23903204.480    23903202.177
        28.100          24.900
 125063934.329 4  97452427.317 3  23798869.108    23798867.342    23798868.137
        29.000          23.000
 108432112.941 7  84492578.365 7  20633928.666    20633925.636    20633927.950
        47.000          45.000
 12  1  1  0 49 30.0000000  0 10G32G12G18G31G11G14G25G 1G 9G22
 127754024.711 3  99548591.859 3  24310782.173    24310782.829    24310781.883
        23.000          19.900
 117644407.656 6  91670961.771 5  22386990.793    22386988.866    22386990.383
        39.000          35.100
 121332687.944 4  94544961.262 3  23088836.124    23088834.983    23088835.289
        29.000          23.800
 117341237.260 6  91434736.765 6  22329289.654    22329289.008    22329289.618
        38.000          37.000
 127105768.378 3  99043465.841 3  24187416.398    24187416.018    24187416.325
        23.000          21.100
 107609359.653 7  83851458.430 7  20477374.921    20477373.356    20477374.369
        43.000          47.000
 116676945.395 7  90917094.774 6  22202889.579    22202891.033    22202888.598
        43.000          36.000
 125573242.080 4  97849268.935 3  23895803.063    23895805.294    23895802.570
        27.100          23.800
 125177164.035 4  97540658.247 3  23820414.998    23820414.036    23820414.510
        27.100          19.900
 108476179.256 7  84526915.737 7  20642314.049    20642311.244    20642313.509
        47.000          45.000
 12  1  1  0 50  0.0000000  0 10G32G12G18G31G11G14G25G 1G 9G22
 127659349.277 3  99474818.832 3  24292767.464    24292766.513    24292765.911
        23.800          22.100
 117642759.193 6  91669677.266 5  22386676.885    22386675.337    22386676.446
        39.000          35.100
 121432483.159 4  94622723.682 3  23107825.197    23107825.600    23107825.497
        28.100          23.800
 117251676.451 6  91364949.173 6  22312246.595    22312246.125    22312246.821
        38.000          37.000
 127128003.926 3  99060792.241 3  24191647.988    24191647.485    24191647.789
        22.100          21.100
 107595119.307 7  83840362.058 7  20474664.952    20474663.475    20474664.483
        43.000          47.000
 116616394.423 7  90869912.250 6  22191366.707    22191368.468    22191365.975
        43.000          37.000
 125534903.066 4  97819394.409 4  23888506.692    23888509.721    23888506.374
        25.900          24.900
 125290515.986 4  97628984.413 3  23841985.330    23841984.261    23841984.993
        28.100          21.100
 108520727.094 7  84561628.317 7  20650791.647    20650788.409    20650790.750
        47.000          45.000
 12  1  1  0 50 30.0000000  0 10G32G12G18G31G11G14G25G 1G 9G22
 127564797.989 3  99401142.586 4  24274774.505    24274773.954    24274773.363
        23.000          24.900
 117641730.940 6  91668876.038 5  22386481.740    22386479.629    22386481.184
        39.000          35.100
 121532511.128 4  94700667.498 3  23126860.692    23126860.399    23126859.847
        27.100          23.000
 117162429.401 6  91295406.061 6  22295263.742    22295262.823    22295263.857
        39.000          37.000
 127150736.208 3  99078505.734 3  24195974.301    24195973.260    24195973.846
        23.800          21.100
 107581167.075 7  83829490.189 7  20472009.855    20472008.417    20472009.329
        43.000          47.000
 116556324.988 7  90823104.952 6  22179935.375    22179937.418    22179934.675
        43.000          36.000
 125497108.999 4  97789944.505 4  23881314.859    23881317.464    23881314.645
        24.900          24.900
 125403987.939 4  97717404.141 2  23863578.743    23863577.093    23863578.175
        28.100          17.800
 108565755.724 7  84596715.542 7  20659360.287    20659357.083    20659359.367
        47.000          45.000
 12  1  1  0 51  0.0000000  0 10G32G12G18G31G11G14G25G 1G 9G22
 127470372.664 3  99327564.477 3  24256805.867    24256805.378    24256804.314
        21.100          23.800
 117641322.821 6  91668558.032 6  22386403.578    22386401.945    22386403.222
        39.000          36.000
 121632770.001 4  94778791.203 3  23145939.279    23145939.050    23145939.067
        29.000          23.000
 117073497.465 6  91226108.473 6  22278340.981    22278339.490    22278340.829
        40.000          36.000
 127173963.981 3  99096605.295 2  24200394.356    24200393.072    24200393.449
        22.100          17.800
 107567503.008 7  83818842.865 7  20469409.807    20469408.227    20469409.234
        43.000          47.000
 116496739.526 7  90776674.776 6  22168596.455    22168598.596    22168596.189
        43.000          36.000
 125459861.006 3  97760920.109 4  23874226.930    23874229.406    23874226.635
        23.800          24.900
 125517577.322 4  97805915.419 3  23885193.594    23885192.714    23885193.513
        25.900          19.300
 108611264.718 7  84632177.079 7  20668020.770    20668017.149    20668019.514
        47.000          45.000
 12  1  1  0 51 30.0000000  0 10G32G12G18G31G11G14G25G 1G 9G22
 127376075.217 4  99254086.029 4  24238861.109    24238861.687    24238860.125
        25.900          24.900
 117641535.997 6  91668724.151 5  22386444.298    22386442.231    22386443.880
        39.000          35.100
 121733258.125 4  94857093.604 3  23165062.555    23165060.925    23165061.198
        28.100          21.100
 116984882.098 6  91157057.563 6  22261477.684    22261476.653    22261477.602
        39.000          37.000
 127197685.496 3  99115089.593 2  24204908.629    24204907.144    24204908.195
        23.000          17.800
 107554127.516 7  83808420.408 7  20466864.584    20466862.960    20466864.033
        43.000          47.000
 116437640.401 7  90730623.559 6  22157350.477    22157352.255    22157349.881
        43.000          36.000
 125423160.185 4  97732322.116 4  23867243.330    23867245.624    23867242.818
        25.900          24.900
 125631281.573 4  97894516.131 3  23906830.916    23906829.818    23906830.506
        28.100          19.900
 108657253.615 7  84668012.563 7  20676772.242    20676768.603    20676770.995
        47.000          45.000
 12  1  1  0 52  0.0000000  0 10G32G12G18G31G11G14G25G 1G 9G22
 127281907.696 4  99180708.805 4  24220941.504    24220942.094    24220941.049
        27.100          24.900
 117642370.163 6  91669374.168 5  22386602.965    22386600.841    22386602.537
        39.000          35.100
 121833973.555 4  94935573.096 3  23184227.264    23184226.833    23184226.596
        28.100          22.100
 116896584.720 6  91088254.447 6  22244674.682    22244674.201    22244674.860
        39.000          37.000
 127221899.270 3  99133957.479 2  24209515.776    24209514.866    24209515.500
        23.800          17.800
 107541040.550 7  83798222.783 7  20464374.188    20464372.588    20464373.651
        43.000          47.000
 116379030.124 7  90684953.254 6  22146196.849    22146199.163    22146196.678
        43.000          36.000
 125387007.668 3  97704151.326 4  23860362.799    23860366.623    23860362.357
        23.800          25.900
 125745098.332 4  97983204.542 3  23928488.891    23928488.259    23928488.260
        25.900          19.900
 108703721.409 7  84704221.211 7  20685614.893    20685611.188    20685613.548
        47.000          45.000
 12  1  1  0 52 30.0000000  0 10G32G12G18G31G11G14G25G 1G 9G22
 127187871.826 4  99107434.140 3  24203047.026    24203047.365    24203046.038
        28.100          23.800
 117643825.753 6  91670508.405 5  22386879.584    22386878.060    22386879.522
        39.000          35.100
 121934914.337 4  95014228.193 3  23203435.143    23203434.781    23203435.020
        28.100          21.100
 116808606.921 6  91019700.360 6  22227933.045    22227932.437    22227933.183
        39.000          37.000
 127246603.914 3  99153207.858 2  24214217.044    24214215.860    24214216.648
        23.800          15.100
 107528242.924 7  83788250.619 7  20461939.030    20461937.251    20461938.390
        43.000          47.000
 116320911.061 7  90639665.709 6  22135137.784    22135139.601    22135137.127
        43.000          36.000
 125351404.577 4  97676408.648 4  23853588.047    23853590.959    23853588.017
        24.900          24.900
 125859025.488 4  98071978.967 3  23950168.592    23950167.849    23950168.096
        25.900          19.900
 108750667.258 7  84740802.370 7  20694548.894    20694544.795    20694547.190
        47.000          45.000
 12  1  1  0 53  0.0000000  0 10G32G12G18G31G11G14G25G 1G 9G22
 127093969.560 4  99034263.560 3  24185178.218    24185178.105    24185177.531
        29.000          19.300
 117645902.846 6  91672126.933 5  22387274.697    22387273.151    22387274.745
        39.000          35.100
 122036079.201 4  95093057.896 4  23222687.199    23222686.738    23222686.134
        27.100          24.900
 116720950.113 6  90951396.387 6  22211252.734    22211251.881    22211252.601
        39.000          37.000
 127271798.143 3  99172839.732 2  24219011.495    24219010.089    24219010.951
        23.000          17.000
 107515734.482 7  83778503.795 7  20459558.462    20459556.922    20459558.004
        43.000          47.000
 116263285.588 7  90594762.781 6  22124171.727    22124173.893    22124171.343
        43.000          37.000
 125316351.899 4  97649094.886 4  23846918.384    23846920.941    23846918.010
        24.900          27.100
 125973060.369 4  98160837.344 2  23971868.223    23971867.257    23971867.980
        25.900          17.800
 108798090.464 7  84777755.490 7  20703573.431    20703569.066    20703571.569
        47.000          44.000
 12  1  1  0 53 30.0000000  0 10G32G12G18G31G11G14G25G 1G 9G22
 127000202.813 4  98961198.587 3  24167334.650    24167335.009    24167333.662
        24.900          23.000
 117648601.556 6  91674229.843 5  22387788.094    22387786.816    22387788.193
        39.000          35.100
 122137465.910 4  95172060.441 3  23241979.064    23241979.799    23241979.485
        27.100          23.000
 116633615.495 6  90883343.459 6  22194633.651    22194632.765    22194633.466
        40.000          38.000
 127297480.172 3  99192851.705 2  24223898.985    24223897.529    24223898.415
        23.800          17.800
 107503515.497 7  83768982.520 7  20457233.324    20457231.700    20457232.840
        43.000          47.000
 116206156.102 7  90550246.342 6  22113300.518    22113302.559    22113299.788
        43.000          37.000
 125281850.734 3  97622210.868 4  23840352.787    23840355.207    23840352.241
        23.000          25.900
 126087200.981 4  98249778.111 2  23993588.881    23993587.202    23993588.379
        24.900          13.900
 108845990.487 7  84815080.166 7  20712688.284    20712684.172    20712686.518
        47.000          44.000
 12  1  1  0 54  0.0000000  0 10G32G12G18G31G11G14G25G 1G 9G22
 126906573.578 4  98888240.771 3  24149518.145    24149517.563    24149517.308
        29.000          21.100
 117651922.023 6  91676817.232 5  22388420.509    22388418.567    22388420.398
        39.000          35.100
 122239072.578 4  95251234.426 3  23261315.945    23261314.860    23261314.913
        28.100          23.000
 116546604.580 6  90815542.777 6  22178075.873    22178075.161    22178075.827
        40.000          38.000
 127323648.395 3  99213242.512 2  24228877.570    24228876.700    24228877.563
        23.000          15.100
 107491586.249 7  83759687.006 7  20454963.398    20454961.624    20454962.853
        43.000          47.000
 116149524.944 7  90506118.211 6  22102523.676    22102525.956    22102523.233
        43.000          37.000
 125247902.051 3  97595757.379 4  23833891.768    23833895.432    23833891.561
        23.000          28.100
 126201444.701 3  98338799.160 2  24015328.280    24015327.941    24015328.340
        23.000          17.800
 108894366.384 7  84852775.663 7  20721894.151    20721889.785    20721892.270
        47.000          44.000
 12  1  1  0 54 30.0000000  0 10G32G12G18G31G11G14G25G 1G 9G22
 126813083.617 3  98815391.474 3  24131726.353    24131727.382    24131726.073
        23.800          23.000
 117655864.800 6  91679889.551 5  22389170.505    22389168.985    22389170.490
        39.000          35.100
 122340897.413 4  95330578.376 3  23280691.859    23280691.720    23280691.524
        29.000          22.100
 116459918.824 6  90747995.473 6  22161579.804    22161579.363    22161579.930
        40.000          38.000
 127350301.309 3  99234011.019 2  24233949.968    24233948.263    24233949.411
        23.800          17.800
 107479946.825 7  83750617.330 7  20452748.322    20452746.699    20452747.833
        43.000          47.000
 116093394.416 7  90462380.172 6  22091842.802    22091844.592    22091841.986
        43.000          37.000
 125214506.960 3  97569735.225 4  23827537.340    23827540.151    23827536.877
        23.800          25.900
 126315789.409 4  98427898.902 2  24037088.232    24037086.774    24037087.464
        24.900          17.800
 108943217.258 7  84890841.271 7  20731190.252    20731185.756    20731188.298
        47.000          44.000
 12  1  1  0 55  0.0000000  0 10G32G12G18G31G11G14G25G 1G 9G22
 126719734.991 3  98742652.339 3  24113963.561    24113963.482    24113962.292
        23.800          22.100
 117660429.108 6  91683446.172 5  22390039.060    22390037.505    22390038.931
        39.000          35.100
 122442938.602 4  95410090.935 3  23300108.510    23300109.454    23300109.240
        27.100          22.100
 116373559.690 6  90680702.671 6  22145146.428    22145145.510    22145146.517
        40.000          38.000
 127377437.340 4  99255156.012 2  24239114.341    24239112.372    24239113.859
        24.900          15.100
 107468597.643 7  83741773.818 8  20450588.621    20450587.008    20450588.144
        43.000          48.000
 116037766.894 7  90419034.108 6  22081256.380    22081258.888    22081256.166
        43.000          37.000
 125181666.256 3  97544145.129 4  23821288.603    23821290.821    23821287.781
        23.800          27.100
 126430232.563 4  98517075.481 2  24058865.940    24058865.108    24058865.415
        27.100          17.800
 108992542.408 7  84929276.444 7  20740576.434    20740571.989    20740574.521
        47.000          44.000
 12  1  1  0 55 30.0000000  0 10G32G12G18G31G11G14G25G 1G 9G22
 126626529.575 4  98670024.757 3  24096227.672    24096227.160    24096226.800
        24.900          23.000
 117665615.686 6  91687487.675 6  22391026.117    22391024.557    22391025.945
        39.000          36.000
 122545194.450 4  95489770.718 3  23319568.975    23319568.285    23319568.061
        28.100          23.000
 116287528.246 6  90613665.209 6  22128775.498    22128774.184    22128775.441
        40.000          37.000
 127405054.806 4  99276676.096 2  24244368.908    24244367.816    24244369.138
        24.900          13.900
 107457538.783 7  83733156.528 7  20448484.367    20448482.621    20448483.815
        43.000          47.000
 115982644.680 7  90376081.775 6  22070767.606    22070769.535    22070766.806
        43.000          37.000
 125149381.038 4  97518987.827 4  23815145.099    23815147.351    23815144.557
        25.900          25.900
 126544771.917 3  98606326.932 2  24080661.564    24080661.173    24080661.253
        23.000          16.100
 109042341.067 7  84968080.576 7  20750052.442    20750048.470    20750050.830
        47.000          44.000
 12  1  1  0 56  0.0000000  0 10G32G12G18G31G11G14G25G 1G 9G22
 126533469.327 4  98597510.325 3  24078517.956    24078518.353    24078517.370
        25.900          23.000
 117671424.464 6  91692014.013 6  22392131.556    22392130.044    22392131.224
        39.000          36.000
 122647663.010 4  95569616.293 3  23339066.545    23339067.565    23339066.652
        25.900          23.000
 116201826.365 6  90546884.544 6  22112467.032    22112465.820    22112466.862
        40.000          38.000
 127433152.202 3  99298570.185 2  24249715.438    24249714.808    24249715.273
        23.000          16.100
 107446770.560 7  83724765.709 7  20446435.125    20446433.490    20446434.621
        43.000          47.000
 115928029.968 7  90333524.896 6  22060374.421    22060376.555    22060373.949
        43.000          37.000
 125117652.233 4  97494264.081 4  23809107.031    23809109.214    23809106.563
        27.100          24.900
 126659405.209 4  98695651.614 2  24102476.258    24102474.849    24102475.568
        25.900          15.100
 109092612.400 7  85007253.026 7  20759618.788    20759614.816    20759617.272
        47.000          44.000
 12  1  1  0 56 30.0000000  0 10G32G12G18G31G11G14G25G 1G 9G22
 126440556.207 4  98525110.505 4  24060837.748    24060837.415    24060836.761
        27.100          24.900
 117677855.415 6  91697025.159 5  22393355.576    22393353.541    22393355.172
        39.000          35.100
 122750342.178 4  95649625.969 3  23358606.961    23358606.570    23358606.288
        27.100          21.100
 116116455.059 6  90480361.496 6  22096221.085    22096220.257    22096221.074
        40.000          38.000
 127461727.683 4  99320836.812 2  24255154.511    24255152.175    24255153.821
        24.900          15.100
 107436293.273 7  83716601.590 8  20444441.381    20444439.767    20444440.921
        43.000          48.000
 115873925.134 7  90291365.323 6  22050078.789    22050080.756    22050078.211
        43.000          37.000
 125086480.691 4  97469974.565 4  23803175.040    23803177.130    23803174.537
        24.900          24.900
 126774130.192 4  98785047.714 2  24124307.004    24124306.610    24124306.755
        24.900          17.800
 109143355.753 7  85046793.280 7  20769274.336    20769270.996    20769273.216
        46.000          44.000
 12  1  1  0 57  0.0000000  0 10G32G12G18G31G11G14G25G 1G 9G22
 126347792.224 4  98452826.910 4  24043185.259    24043185.578    24043184.255
        27.100          25.900
 117684908.069 6  91702520.742 5  22394697.020    22394695.446    22394696.962
        39.000          35.100
 122853230.214 4  95729798.406 3  23378185.719    23378185.414    23378185.209
        25.900          19.900
 116031415.669 6  90414097.073 6  22080038.702    22080037.621    22080038.842
        41.000          38.000
 127490779.691 3  99343474.754 2  24260682.716    24260680.958    24260682.233
        23.800          17.000
 107426107.119 7  83708664.323 8  20442503.084    20442501.412    20442502.520
        43.000          48.000
 115820332.336 7  90249604.747 6  22039880.277    22039882.360    22039879.731
        44.000          37.000
 125055867.318 3  97446120.014 4  23797348.843    23797352.019    23797348.874
        23.000          27.100
 126888944.262 4  98874513.275 3  24146156.248    24146154.881    24146155.874
        25.900          19.300
 109194569.718 7  85086700.250 7  20779019.736    20779016.625    20779018.826
        47.000          44.000
 12  1  1  0 57 30.0000000  0 10G32G12G18G31G11G14G25G 1G 9G22
 126255179.267 4  98380661.002 4  24025561.598    24025562.089    24025560.793
        27.100          25.900
 117692582.841 6  91708501.104 5  22396158.029    22396156.073    22396157.901
        40.000          35.100
 122956325.143 4  95810132.078 3  23397805.368    23397803.791    23397804.251
        27.100          19.300
 115946709.733 6  90348092.480 6  22063919.796    22063918.602    22063919.784
        41.000          38.000
 127520306.648 3  99366482.772 2  24266300.582    24266299.792    24266300.444
        22.100          17.800
 107416212.275 7  83700954.051 8  20440620.085    20440618.482    20440619.537
        43.000          48.000
 115767253.865 7  90208244.938 6  22029780.063    22029781.640    22029779.316
        44.000          37.000
 125025813.006 4  97422701.078 4  23791630.693    23791632.631    23791630.240
        27.100          27.100
 127003845.316 3  98964046.543 3  24168021.482    24168019.795    24168020.439
        23.000          19.900
 109246253.699 7  85126973.463 7  20788854.807    20788851.822    20788854.096
        47.000          44.000
 12  1  1  0 58  0.0000000  0 10G32G12G18G31G11G14G25G 1G 9G22
 126162719.269 4  98308614.285 3  24007967.147    24007966.991    24007966.330
        27.100          23.800
 117700879.490 6  91714966.039 5  22397736.728    22397735.018    22397736.480
        39.000          35.100
 123059625.310 4  95890625.644 3  23417460.907    23417461.799    23417461.020
        27.100          22.100
 115862338.713 6  90282348.862 6  22047864.239    22047863.389    22047864.359
        41.000          39.000
 127550306.765 3  99389859.497 2  24272009.303    24272008.402    24272008.945
        19.300          17.000
 107406608.949 7  83693470.940 8  20438792.556    20438791.049    20438792.041
        43.000          48.000
 115714691.919 7  90167287.632 6  22019777.579    22019779.291    22019776.971
        44.000          37.000
 124996318.505 4  97399718.367 4  23786018.087    23786020.202    23786017.346
        27.100          27.100
 127118831.085 3  99053645.871 3  24189901.658    24189900.965    24189901.199
        23.800          23.000
 109298406.814 7  85167612.243 7  20798778.909    20798776.266    20798778.514
        47.000          44.000
 12  1  1  0 58 30.0000000  0 10G32G12G18G31G11G14G25G 1G 9G22
 126070414.339 4  98236688.388 4  23990401.511    23990402.230    23990400.561
        27.100          24.900
 117709797.884 6  91721915.447 6  22399433.887    22399431.998    22399433.668
        39.000          36.000
 123163128.758 4  95971277.629 3  23437158.014    23437157.758    23437157.144
        27.100          22.100
 115778303.619 6  90216867.005 6  22031872.529    22031871.933    22031872.691
        40.000          39.000
 127580777.995 3  99413603.314 3  24277808.525    24277807.145    24277807.981
        23.000          19.300
 107397297.439 7  83686215.223 8  20437020.716    20437019.147    20437020.268
        43.000          48.000
 115662648.671 7  90126734.510 6  22009873.942    22009875.729    22009873.407
        44.000          37.000
 124967384.724 4  97377172.592 4  23780511.377    23780514.418    23780510.984
        25.900          27.100
 127233899.499 3  99143309.537 3  24211798.504    24211797.634    24211797.566
        22.100          22.100
 109351028.024 7  85208615.770 7  20808792.185    20808789.773    20808792.027
        47.000          43.000
 12  1  1  0 59  0.0000000  0 10G32G12G18G31G11G14G25G 1G 9G22
 125978266.347 4  98164884.767 4  23972866.098    23972866.437    23972865.775
        28.100          24.900
 117719338.145 6  91729349.428 6  22401248.890    22401247.350    22401249.049
        39.000          36.000
 123266833.494 4  96052086.416 3  23456891.905    23456892.495    23456891.257
        24.900          21.100
 115694605.677 6  90151647.865 6  22015945.665    22015944.578    22015945.665
        41.000          38.000
 127611719.130 3  99437713.290 2  24283696.222    24283695.141    24283695.701
        23.000          17.000
 107388277.792 7  83679186.927 8  20435304.412    20435302.751    20435303.907
        43.000          48.000
 115611126.275 7  90086587.235 6  22000069.544    22000071.581    22000068.966
        44.000          38.000
 124939012.465 4  97355064.344 4  23775112.592    23775115.467    23775112.197
        25.900          28.100
 127349048.194 4  99233035.792 3  24233710.802    24233709.855    24233709.993
        24.900          21.100
 109404116.477 7  85249983.386 7  20818894.661    20818892.244    20818894.494
        47.000          44.000
 12  1  1  0 59 30.0000000  0 10G32G12G18G31G11G14G25G 1G 9G22
 125886277.278 4  98093205.012 4  23955360.893    23955361.971    23955360.397
        28.100          24.900
 117729500.034 6  91737267.798 5  22403182.437    22403181.208    22403182.581
        39.000          35.100
 123370737.717 4  96133050.684 3  23476663.843    23476664.582    23476663.707
        25.900          19.300
 115611246.405 6  90086692.620 6  22000082.902    22000081.968    22000082.979
        41.000          39.000
 127643128.306 3  99462188.008 2  24289673.636    24289671.667    24289673.073
        22.100          15.100
 107379550.452 7  83672386.411 8  20433643.565    20433641.985    20433643.033
        43.000          48.000
 115560126.927 7  90046847.530 6  21990364.610    21990366.721    21990364.111
        44.000          38.000
 124911202.442 4  97333394.217 4  23769820.697    23769823.137    23769820.325
        25.900          25.900
 127464275.055 4  99322823.027 3  24255638.203    24255637.185    24255637.512
        24.900          22.100
 109457671.291 7  85291714.401 7  20829085.967    20829083.429    20829085.522
        46.000          43.000
 12  1  1  1  0  0.0000000  0 10G32G12G18G31G11G14G25G 1G 9G22
 125794449.095 4  98021650.580 3  23937887.018    23937887.181    23937886.407
        29.000          23.800
 117740282.860 6  91745670.015 5  22405234.908    22405233.084    22405234.703
        39.000          35.100
 123474839.639 4  96214168.987 3  23496474.431    23496474.717    23496473.808
        25.900          21.100
 115528227.224 7  90022002.388 6  21984284.889    21984283.961    21984284.940
        42.000          39.000
 127675003.590 3  99487025.897 2  24295738.579    24295737.369    24295737.931
        19.300          13.900
 107371115.695 7  83665813.879 8  20432038.442    20432036.902    20432037.985
        43.000          48.000
 115509652.706 7  90007517.007 6  21980759.617    21980761.635    21980759.174
        44.000          37.000
 124883955.432 4  97312162.778 4  23764635.827    23764638.437    23764635.373
        27.100          28.100
 127579577.596 4  99412669.189 3  24277578.009    24277578.569    24277577.977
        24.900          19.300
 109511691.487 7  85333808.046 7  20839365.934    20839363.142    20839365.151
        46.000          43.000
 12  1  1  1  0 30.0000000  0  9G32G12G18G31G11G14G25G 1G22
 125702783.782 5  97950223.095 4  23920444.462    23920444.102    23920443.773
        30.100          24.900
 117751686.939 6  91754556.321 5  22407404.837    22407403.171    22407404.671
        39.000          35.100
 123579136.886 4  96295439.482 3  23516321.295    23516321.940    23516321.127
        27.100          21.100
 115445549.170 6  89957577.963 6  21968551.629    21968550.731    21968551.700
        41.000          39.000
 127707343.456 3  99512225.810 2  24301893.069    24301891.389    24301892.518
        19.300          15.100
 107362973.701 7  83659469.481 8  20430489.199    20430487.531    20430488.663
        43.000          48.000
 115459705.758 7  89968597.355 6  21971255.153    21971256.915    21971254.662
        45.000          37.000
 124857272.160 4  97291370.643 4  23759558.653    23759560.262    23759558.216
        28.100          24.900
 109566175.955 7  85376263.463 7  20849734.429    20849731.074    20849733.236
        46.000          43.000
 12  1  1  1  1  0.0000000  0  9G32G12G18G31G11G14G25G 1G22
 125611283.394 4  97878924.117 4  23903031.794    23903032.052    23903030.810
        28.100          24.900
 117763711.655 6  91763926.243 5  22409693.074    22409691.365    22409692.842
        39.000          35.100
 123683627.953 4  96376861.034 3  23536206.574    23536205.948    23536205.584
        28.100          19.900
 115363213.659 7  89893420.455 6  21952883.809    21952882.648    21952883.824
        42.000          38.000
 127740145.927 3  99537786.181 2  24308134.926    24308133.917    24308134.557
        22.100          16.100
 107355124.969 7  83653353.600 8  20428995.388    20428993.923    20428994.991
        43.000          48.000
 115410288.200 7  89930090.211 6  21961851.540    21961853.000    21961850.860
        45.000          37.000
 124831153.334 4  97271018.308 4  23754588.361    23754589.870    23754587.598
        25.900          25.900
 109621123.853 7  85419079.990 7  20860190.762    20860187.379    20860189.438
        46.000          43.000
 12  1  1  1  1 30.0000000  0  9G32G12G18G31G11G14G25G 1G22
 125519949.955 4  97807755.217 4  23885651.382    23885651.413    23885651.046
        28.100          24.900
 117776356.961 6  91773779.728 6  22412099.439    22412097.783    22412099.193
        39.000          36.000
 123788310.913 4  96458432.135 3  23556126.434    23556126.523    23556125.972
        27.100          19.900
 115281222.010 7  89829530.897 6  21937281.505    21937280.255    21937281.396
        42.000          39.000
 127773409.000 3  99563705.460 2  24314465.495    24314463.157    24314464.732
        23.000          17.000
 107347569.587 7  83647466.305 8  20427557.827    20427556.154    20427557.301
        43.000          48.000
 115361402.038 7  89891997.128 6  21952548.882    21952550.301    21952548.122
        45.000          37.000
 124805599.596 4  97251106.339 4  23749725.099    23749727.191    23749724.526
        25.900          24.900
 109676533.906 7  85462256.637 7  20870735.228    20870731.568    20870733.608
        46.000          43.000
 12  1  1  1  2  0.0000000  0  9G32G12G18G31G11G14G25G 1G22
 125428785.473 4  97736717.964 4  23868303.329    23868304.018    23868302.698
        27.100          25.900
 117789622.384 6  91784116.427 5  22414623.447    22414622.041    22414623.445
        39.000          35.100
 123893183.723 3  96540151.091 3  23576084.235    23576083.020    23576082.780
        23.800          19.300
 115199575.304 7  89765910.119 6  21921744.656    21921743.450    21921744.467
        42.000          39.000
 127807130.852 3  99589982.238 3  24320881.730    24320880.708    24320881.273
        23.000          19.300
 107340307.441 7  83641807.507 8  20426175.938    20426174.222    20426175.389
        43.000          48.000
 115313049.420 7  89854319.807 6  21943347.290    21943349.065    21943346.988
        45.000          37.000
 124780611.667 4  97231635.195 4  23744970.305    23744972.332    23744969.868
        27.100          27.100
 109732405.422 7  85505792.863 7  20881367.467    20881363.570    20881365.783
        46.000          43.000
 12  1  1  1  2 30.0000000  0  9G32G12G18G31G11G14G25G 1G22
 125337791.828 4  97665813.860 4  23850988.696    23850987.917    23850987.498
        28.100          24.900
 117803508.181 6  91794936.529 6  22417266.161    22417264.498    22417266.092
        39.000          36.000
 123998244.393 4  96622016.460 3  23596074.812    23596075.718    23596074.699
        24.900          19.900
 115118274.936 7  89702559.217 6  21906273.675    21906272.249    21906273.531
        42.000          39.000
 127841309.888 3  99616615.265 3  24327386.012    24327384.793    24327385.493
        23.000          19.300
 107333338.969 7  83636377.551 8  20424849.834    20424848.104    20424849.354
        43.000          48.000
 115265232.341 7  89817059.787 6  21934248.253    21934249.645    21934247.566
        45.000          37.000
 124756190.138 4  97212605.443 4  23740322.956    23740325.586    23740322.549
        28.100          28.100
 109788737.359 7  85549687.858 7  20892087.122    20892083.193    20892085.541
        46.000          43.000
 12  1  1  1  3  0.0000000  0  9G32G12G18G31G11G14G25G 1G22
 125246971.164 4  97595044.545 4  23833706.354    23833705.747    23833705.087
        29.000          27.100
 117818013.555 6  91806239.427 6  22420026.225    22420024.685    22420026.081
        39.000          36.000
 124103491.178 4  96704026.866 3  23616103.421    23616103.785    23616102.696
        25.900          21.100
 115037322.290 7  89639479.253 6  21890868.984    21890867.649    21890868.783
        42.000          40.000
 127875944.196 3  99643603.035 3  24333976.231    24333975.400    24333975.992
        23.800          19.300
 107326664.580 7  83631176.743 8  20423579.716    20423577.912    20423579.168
        42.000          48.000
 115217952.769 7  89780218.592 6  21925250.860    21925252.599    21925250.346
        45.000          37.000
 124732335.623 4  97194017.542 4  23735783.708    23735785.819    23735783.173
        24.900          27.100
 109845528.532 7  85593940.705 7  20902893.648    20902890.152    20902892.362
        46.000          43.000
 12  1  1  1  3 30.0000000  0  9G32G12G18G31G11G14G25G 1G22
 125156325.386 4  97524411.517 4  23816456.327    23816456.339    23816455.469
        27.100          24.900
 117833138.045 6  91818024.745 5  22422904.259    22422902.728    22422904.148
        39.000          35.100
 124208922.253 4  96786180.861 3  23636165.979    23636166.491    23636165.570
        24.900          19.900
 114956718.120 7  89576670.849 6  21875529.891    21875529.308    21875530.094
        42.000          40.000
 127911031.872 4  99670944.090 2  24340653.205    24340651.630    24340653.007
        24.900          17.000
 107320284.256 7  83626205.071 8  20422365.460    20422363.829    20422364.907
        42.000          48.000
 115171212.779 7  89743797.851 6  21916356.540    21916358.219    21916356.037
        45.000          37.000
 124709048.737 4  97175871.918 4  23731352.032    23731354.674    23731351.566
        27.100          27.100
 109902777.868 7  85638550.560 7  20913787.616    20913784.397    20913786.545
        46.000          43.000
 12  1  1  1  4  0.0000000  0  9G32G12G18G31G11G14G25G 1G22
 125065856.581 4  97453916.370 4  23799240.864    23799240.492    23799239.869
        27.100          24.900
 117848881.267 6  91830292.195 5  22425900.244    22425898.579    22425900.104
        39.000          35.100
 124314535.331 4  96868476.700 3  23656264.417    23656264.242    23656263.342
        24.900          22.100
 114876463.942 7  89514135.164 6  21860258.347    21860257.281    21860258.268
        42.000          40.000
 127946570.832 4  99698636.800 3  24347416.438    24347415.118    24347416.245
        25.900          19.300
 107314198.392 7  83621462.850 8  20421207.311    20421205.755    20421206.819
        42.000          48.000
 115125014.299 7  89707799.078 6  21907565.358    21907567.117    21907564.713
        45.000          38.000
 124686330.013 4  97158169.034 4  23727028.526    23727030.784    23727028.140
        27.100          24.900
 109960484.126 7  85683516.463 7  20924768.675    20924765.505    20924767.681
        46.000          42.000
 12  1  1  1  4 30.0000000  0  9G32G12G18G31G11G14G25G 1G22
 124975566.747 4  97383560.663 4  23782058.393    23782058.850    23782057.949
        28.100          24.900
 117865242.702 6  91843041.368 6  22429013.611    22429012.173    22429013.482
        39.000          36.000
 124420328.204 3  96950912.605 3  23676394.473    23676395.824    23676394.428
        23.800          19.300
 114796561.062 7  89451873.203 6  21845053.260    21845052.146    21845053.317
        42.000          39.000
 127982559.312 4  99726679.789 2  24354265.123    24354263.224    24354264.715
        24.900          17.000
 107308407.274 7  83616950.303 8  20420105.210    20420103.679    20420104.784
        43.000          48.000
 115079359.284 7  89672223.775 6  21898877.238    21898879.049    21898876.816
        45.000          37.000
 124664180.019 4  97140909.302 4  23722813.658    23722816.339    23722813.433
        27.100          28.100
 110018646.338 7  85728837.654 7  20935836.244    20935833.528    20935835.602
        46.000          42.000
 12  1  1  1  5  0.0000000  0  9G32G12G18G31G11G14G25G 1G22
 124885457.982 5  97313346.097 4  23764911.900    23764912.061    23764911.290
        30.100          25.900
 117882222.283 6  91856272.214 5  22432244.583    22432243.008    22432244.626
        39.000          35.100
 124526299.610 4  97033487.632 2  23696561.199    23696561.619    23696560.294
        24.900          17.000
 114717010.562 7  89389885.830 6  21829915.201    21829914.382    21829915.168
        42.000          40.000
 128018995.109 4  99755071.321 3  24361198.604    24361196.963    24361197.829
        24.900          19.300
 107302911.160 7  83612667.624 8  20419059.498    20419057.782    20419058.933
        43.000          48.000
 115034249.695 7  89637073.462 6  21890293.417    21890294.953    21890292.834
        45.000          38.000
 124642599.231 4  97124093.121 4  23718707.007    23718709.352    23718706.701
        25.900          27.100
 110077263.261 7  85774513.166 7  20946990.466    20946987.900    20946990.145
        46.000          42.000
 12  1  1  1  5 30.0000000  0  9G32G12G18G31G11G14G25G 1G22
 124795532.220 5  97243274.117 4  23747798.785    23747799.354    23747798.713
        30.100          24.900
 117899818.786 6  91869983.773 6  22435592.718    22435591.639    22435592.966
        38.000          36.000
 124632447.483 3  97116200.206 2  23716760.175    23716760.568    23716759.968
        23.800          16.100
 114637813.676 7  89328174.002 6  21814844.399    21814843.659    21814844.443
        42.000          40.000
 128055876.565 3  99783810.144 2  24368216.693    24368215.019    24368216.156
        23.000          17.800
 107297710.182 7  83608614.920 8  20418069.741    20418068.066    20418069.229
        42.000          48.000
 114989687.389 7  89602349.607 6  21881813.394    21881815.030    21881812.731
        45.000          37.000
 124621588.169 4  97107720.867 4  23714708.796    23714710.912    23714708.122
        24.900          24.900
 110136333.995 7  85820542.299 7  20958231.884    20958228.691    20958230.954
        46.000          42.000
 12  1  1  1  6  0.0000000  0  9G32G12G18G31G11G14G25G 1G22
 124705791.618 4  97173346.413 4  23730722.574    23730722.378    23730721.571
        29.000          27.100
 117918032.485 6  91884176.271 6  22439059.424    22439057.626    22439059.251
        38.000          36.000
 124738769.887 3  97199048.752 3  23736993.798    23736993.663    23736992.573
        23.800          19.900
 114558971.435 7  89266738.522 6  21799841.498    21799840.051    21799841.445
        43.000          39.000
 128093201.648 3  99812894.638 2  24375319.331    24375317.874    24375319.039
        23.800          17.000
 107292804.524 7  83604792.331 8  20417136.111    20417134.523    20417135.702
        42.000          48.000
 114945674.309 7  89568053.721 6  21873437.628    21873439.589    21873437.334
        45.000          38.000
 124601147.269 4  97091792.926 4  23710818.264    23710821.260    23710818.207
        25.900          24.900
 110195857.354 7  85866924.120 7  20969559.160    20969555.612    20969557.925
        46.000          42.000
 12  1  1  1  6 30.0000000  0  9G32G12G18G31G11G14G25G 1G22
 124616238.087 4  97103564.472 4  23713680.691    23713681.037    23713679.915
        29.000          25.900
 117936862.713 6  91898849.173 5  22442642.679    22442640.765    22442642.540
        39.000          35.100
 124845264.686 3  97282031.628 3  23757257.385    23757258.947    23757257.334
        22.100          19.300
 114480485.024 7  89205580.306 6  21784905.933    21784904.467    21784905.815
        43.000          39.000
 128130968.338 3  99842323.228 2  24382505.907    24382504.570    24382505.690
        23.000          17.000
 107288194.752 7  83601200.295 8  20416259.010    20416257.333    20416258.531
        43.000          48.000
 114902212.331 7  89534187.271 6  21865167.900    21865169.050    21865167.046
        45.000          37.000
 124581277.019 3  97076309.616 4  23707037.271    23707039.946    23707036.908
        23.800          25.900
 110255832.033 7  85913657.614 7  20980972.043    20980968.546    20980970.619
        46.000          42.000
 12  1  1  1  7  0.0000000  0  9G32G12G18G31G11G14G25G 1G22
 124526873.782 5  97033929.978 4  23696675.413    23696675.406    23696674.639
        31.000          27.100
 117956308.424 6  91914001.690 5  22446343.021    22446341.199    22446342.913
        39.000          35.100
 124951930.077 3  97365147.436 3  23777556.829    23777556.606    23777555.938
        23.000          19.900
 114402355.722 7  89144700.372 6  21770038.579    21770037.239    21770038.421
        43.000          40.000
 128169174.685 3  99872094.401 3  24389776.362    24389775.636    24389776.158
        23.800          21.100
 107283880.858 7  83597838.816 8  20415438.180    20415436.489    20415437.679
        42.000          48.000
 114859303.282 7  89500751.678 6  21857001.517    21857003.707    21857001.297
        45.000          37.000
 124561977.805 4  97061271.288 4  23703365.131    23703367.598    23703364.708
        27.100          27.100
 110316256.960 7  85960741.953 7  20992470.956    20992467.052    20992469.142
        46.000          42.000
 12  1  1  1  7 30.0000000  0  9G32G12G18G31G11G14G25G 1G22
 124437700.670 4  96964444.471 4  23679706.278    23679706.268    23679705.649
        29.000          27.100
 117976369.475 6  91929633.687 6  22450160.277    22450158.848    22450160.261
        39.000          36.000
 125058763.716 4  97448394.343 3  23797886.693    23797886.885    23797886.019
        25.900          19.300
 114324584.689 7  89084099.614 6  21755238.998    21755237.775    21755239.080
        43.000          40.000
 128207818.822 3  99902206.727 3  24397129.803    24397129.216    24397129.473
        22.100          19.300
 107279862.955 7  83594707.983 8  20414673.476    20414671.887    20414673.020
        43.000          48.000
 114816949.028 7  89467748.380 6  21848942.040    21848943.876    21848941.451
        45.000          38.000
 124543250.032 4  97046678.216 3  23699801.265    23699803.278    23699800.743
        25.900          23.800
 110377130.933 7  86008176.194 7  21004054.746    21004050.923    21004053.076
        46.000          42.000
 12  1  1  1  8  0.0000000  0  9G32G12G18G31G11G14G25G 1G22
 124348720.777 4  96895109.538 4  23662774.010    23662774.084    23662773.053
        29.000          27.100
 117997045.150 6  91945744.612 5  22454094.708    22454093.315    22454094.599
        38.000          35.100
 125165763.831 3  97531770.965 3  23818248.046    23818248.062    23818247.219
        23.800          19.300
 114247172.910 7  89023778.790 6  21740507.877    21740506.545    21740507.810
        43.000          40.000
 128246898.406 3  99932658.380 2  24404565.979    24404565.808    24404566.089
        21.100          16.100
 107276141.654 7  83591808.271 8  20413965.404    20413963.696    20413964.906
        43.000          48.000
 114775151.349 7  89435178.802 6  21840988.534    21840990.062    21840987.954
        45.000          37.000
 124525094.096 4  97032530.737 4  23696346.730    23696349.091    23696346.287
        28.100          24.900
 110438452.497 7  86055959.217 7  21015722.807    21015720.029    21015722.024
        46.000          42.000
 12  1  1  1  8 30.0000000  0  9G32G12G18G31G11G14G25G 1G22
 124259936.325 5  96825926.868 4  23645878.193    23645878.756    23645877.724
        30.100          28.100
 118018335.134 6  91962334.220 6  22458146.295    22458144.393    22458146.065
        39.000          36.000
 125272928.323 4  97615275.697 2  23838640.162    23838640.283    23838639.620
        24.900          15.100
 114170121.551 7  88963738.811 6  21725845.602    21725844.116    21725845.712
        43.000          40.000
 128286411.444 3  99963447.771 3  24412085.326    24412084.551    24412085.421
        23.000          19.300
 107272717.192 7  83589139.873 8  20413313.796    20413312.035    20413313.228
        42.000          48.000
 114733912.026 7  89403044.296 6  21833140.536    21833142.274    21833140.060
        45.000          37.000
 124507510.305 4  97018829.105 3  23692999.979    23693002.002    23692999.625
        27.100          23.000
 110500220.684 7  86104090.265 7  21027476.564    21027474.120    21027476.268
        46.000          42.000
 12  1  1  1  9  0.0000000  0  9G32G12G18G31G11G14G25G 1G22
 124171349.242 5  96756898.015 4  23629021.792    23629021.194    23629020.767
        31.000          28.100
 118040238.183 6  91979401.538 6  22462314.297    22462312.533    22462314.012
        38.000          36.000
 125380255.516 3  97698907.188 2  23859064.438    23859064.438    23859063.705
        22.100          16.100
 114093431.843 7  88903980.634 6  21711251.897    21711250.746    21711251.972
        43.000          40.000
 128326355.895 3  99994573.297 2  24419687.250    24419685.403    24419686.707
        22.100          17.000
 107269589.672 7  83586702.859 8  20412718.670    20412716.981    20412718.156
        43.000          48.000
 114693232.822 7  89371346.246 6  21825399.729    21825401.308    21825399.115
        45.000          38.000
 124490499.022 4  97005573.572 4  23689762.546    23689765.549    23689762.310
        25.900          24.900
 110562434.170 7  86152568.296 6  21039315.256    21039312.855    21039315.169
        46.000          41.000
 12  1  1  1  9 30.0000000  0  9G32G12G18G31G11G14G25G 1G22
 124082961.665 5  96688024.606 4  23612201.849    23612201.466    23612200.901
        30.100          28.100
 118062753.529 6  91996945.970 6  22466598.739    22466596.938    22466598.579
        38.000          36.000
 125487743.284 4  97782663.816 2  23879519.181    23879519.235    23879518.526
        24.900          15.100
 114017104.490 7  88844504.821 6  21696727.128    21696726.005    21696727.215
        43.000          40.000
 128366729.968 2 100026033.641 2  24427370.246    24427368.584    24427369.662
        17.800          17.800
 107266759.316 7  83584497.392 8  20412180.147    20412178.432    20412179.641
        43.000          48.000
 114653115.479 7  89340086.008 6  21817765.980    21817767.219    21817765.116
        45.000          38.000
 124474060.497 4  96992764.354 4  23686634.697    23686637.664    23686634.167
        25.900          25.900
 110625091.709 7  86201392.343 6  21051238.839    21051236.292    21051238.362
        46.000          41.000
 12  1  1  1 10  0.0000000  0  9G32G12G18G31G11G14G25G 1G22
 123994775.602 5  96619308.223 4  23595420.064    23595420.118    23595419.276
        30.100          29.000
 118085880.996 6  92014967.379 6  22470999.628    22470998.061    22470999.562
        38.000          36.000
 125595389.482 2  97866543.892 2  23900002.181    23900002.970    23900002.305
        17.800          12.600
 113941140.971 7  88785312.504 6  21682272.039    21682270.674    21682272.021
        43.000          41.000
 128407531.262 3 100057826.836 3  24435133.338    24435133.315    24435133.190
        22.100          19.300
 107264226.464 7  83582523.740 8  20411698.185    20411696.417    20411697.637
        43.000          48.000
 114613561.693 7  89309264.916 6  21810238.685    21810240.588    21810238.117
        45.000          38.000
 124458195.036 4  96980401.665 4  23683616.313    23683618.723    23683615.838
        28.100          27.100
 110688192.389 7  86250561.695 6  21063247.192    21063243.900    21063246.055
        46.000          41.000
 12  1  1  1 10 30.0000000  0  9G32G12G18G31G11G14G25G 1G22
 123906793.108 4  96550750.471 4  23578677.880    23578677.568    23578677.079
        29.000          28.100
 118109619.500 6  92033464.922 6  22475516.687    22475515.834    22475516.796
        39.000          36.000
 125703192.395 3  97950546.092 3  23920518.484    23920517.919    23920517.344
        21.100          21.100
 113865542.322 7  88726404.514 6  21667885.825    21667884.885    21667885.919
        43.000          41.000
 128448757.660 3 100089951.329 2  24442978.365    24442977.844    24442978.383
        21.100          17.800
 107261991.174 7  83580781.941 8  20411272.758    20411270.962    20411272.295
        43.000          48.000
 114574573.209 7  89278884.309 6  21802819.570    21802821.098    21802819.011
        45.000          38.000
 124442902.897 4  96968485.713 4  23680706.161    23680708.489    23680705.497
        27.100          25.900
 110751734.458 7  86300074.976 6  21075339.755    21075335.636    21075337.816
        45.000          41.000
 12  1  1  1 11  0.0000000  0  9G32G12G18G31G11G14G25G 1G22
 123819016.313 5  96482352.976 4  23561974.936    23561974.258    23561973.586
        30.100          27.100
 118133968.180 6  92052437.925 6  22480150.696    22480148.742    22480150.464
        39.000          36.000
 125811150.104 3  98034668.843 3  23941060.644    23941061.636    23941060.492
        22.100          21.100
 113790309.544 7  88667781.610 6  21653569.568    21653568.151    21653569.557
        43.000          40.000
 128490407.234 3 100122405.530 3  24450904.632    24450903.707    24450904.214
        23.000          19.300
 107260053.831 7  83579272.305 8  20410904.006    20410902.289    20410903.543
        42.000          48.000
 114536151.641 7  89248945.452 6  21795507.976    21795509.716    21795507.412
        45.000          38.000
 124428184.277 4  96957016.674 4  23677905.270    23677907.470    23677904.984
        28.100          24.900
 110815716.788 7  86349931.308 7  21087515.312    21087511.181    21087513.293
        45.000          42.000
 12  1  1  1 11 30.0000000  0  9G32G12G18G31G11G14G25G 1G22
 123731447.297 5  96414117.402 4  23545310.716    23545310.564    23545309.930
        31.000          28.100
 118158926.553 6  92071886.012 6  22484899.942    22484898.226    22484899.748
        39.000          36.000
 125919260.357 3  98118910.503 3  23961633.574    23961633.820    23961632.686
        22.100          21.100
 113715443.595 7  88609444.543 6  21639323.285    21639321.467    21639323.145
        44.000          40.000
 128532477.782 3 100155187.772 3  24458910.241    24458909.640    24458909.895
        21.100          21.100
 107258414.716 7  83577995.053 8  20410592.222    20410590.454    20410591.742
        43.000          48.000
 114498298.659 7  89219449.642 6  21788304.727    21788306.521    21788304.112
        45.000          38.000
 124414039.404 4  96945994.713 4  23675213.183    23675215.726    23675212.786
        25.900          27.100
 110880138.114 7  86400129.719 7  21099773.829    21099770.124    21099772.288
        46.000          42.000
 12  1  1  1 12  0.0000000  0  9G32G12G18G31G11G14G25G 1G22
 123644088.093 5  96346045.310 4  23528687.129    23528686.415    23528686.063
        32.000          27.100
 118184493.631 6  92091808.417 6  22489765.080    22489763.754    22489764.863
        38.000          36.000
 126027521.094 3  98203269.419 3  23982234.194    23982235.620    23982234.062
        22.100          19.900
 113640945.725 7  88551394.296 6  21625146.593    21625145.418    21625146.560
        43.000          41.000
 128574966.924 3 100188296.212 2  24466995.752    24466994.568    24466995.084
        22.100          16.100
 107257074.041 7  83576950.352 8  20410337.219    20410335.365    20410336.683
        43.000          48.000
 114461015.935 7  89190398.199 6  21781209.994    21781211.828    21781209.586
        45.000          38.000
 124400468.462 4  96935419.958 4  23672631.178    23672633.156    23672630.733
        27.100          27.100
 110944996.883 7  86450669.001 6  21112114.981    21112112.393    21112114.188
        45.000          41.000
 12  1  1  1 12 30.0000000  0  9G32G12G18G31G11G14G25G 1G22
 123556940.831 5  96278138.399 4  23512103.497    23512102.656    23512102.490
        30.100          25.900
 118210668.726 6  92112204.602 5  22494745.939    22494744.417    22494745.596
        38.000          35.100
 126135930.442 3  98287744.115 2  24002866.312    24002865.433    24002864.622
        22.100          17.000
 113566816.787 7  88493631.525 6  21611040.384    21611038.904    21611040.418
        44.000          41.000
 128617872.783 3 100221729.369 3  24475160.710    24475159.372    24475160.136
        22.100          19.300
 107256032.035 7  83576138.386 8  20410138.843    20410137.022    20410138.235
        43.000          48.000
 114424305.033 7  89161792.325 6  21774224.222    21774225.919    21774223.614
        45.000          38.000
 124387471.552 4  96925292.528 4  23670157.699    23670159.809    23670157.317
        27.100          25.900
 111010292.091 7  86501548.365 6  21124539.703    21124537.650    21124539.480
        45.000          41.000
 12  1  1  1 13  0.0000000  0  9G32G12G18G31G11G14G25G 1G22
 123470007.663 5  96210398.284 4  23495560.786    23495559.905    23495559.663
        31.000          27.100
 118237450.986 6  92133073.892 5  22499842.369    22499840.898    22499842.241
        38.000          35.100
 126244486.532 3  98372333.163 3  24023521.930    24023523.373    24023521.544
        22.100          19.300
 113493057.935 7  88436157.132 6  21597004.397    21597002.995    21597004.326
        44.000          41.000
 128661193.258 3 100255485.598 3  24483404.534    24483403.475    24483403.844
        19.900          19.300
 107255289.073 7  83575559.435 8  20409997.331    20409995.640    20409996.876
        43.000          48.000
 114388167.553 7  89133633.285 6  21767347.401    21767349.210    21767346.784
        45.000          38.000
 124375048.858 4  96915612.523 4  23667793.683    23667796.566    23667793.365
        25.900          29.000
 111076022.061 7  86552766.510 6  21137048.015    21137045.630    21137047.650
        45.000          41.000
 12  1  1  1 13 30.0000000  0  9G32G12G18G31G11G14G25G 1G22
 123383290.632 5  96142826.581 4  23479059.209    23479058.555    23479058.096
        32.000          29.000
 118264838.746 6  92154415.004 5  22505054.323    22505052.655    22505054.068
        39.000          35.100
 126353187.245 4  98457034.957 2  24044208.452    24044208.448    24044207.775
        24.900          16.100
 113419670.255 7  88378971.965 6  21583039.130    21583037.935    21583039.140
        44.000          41.000
 128704926.041 3 100289563.090 2  24491727.070    24491724.969    24491726.691
        23.000          15.100
 107254845.255 7  83575213.594 8  20409912.920    20409911.303    20409912.437
        42.000          48.000
 114352605.054 7  89105922.260 6  21760579.928    21760581.803    21760579.509
        46.000          38.000
 124363200.437 4  96906380.012 4  23665538.930    23665541.452    23665538.526
        27.100          27.100
 111142185.789 7  86604322.647 6  21149639.809    21149636.143    21149638.329
        45.000          41.000
 12  1  1  1 14  0.0000000  0  9G32G12G18G31G11G14G25G 1G22
 123296791.736 5  96075424.867 4  23462598.752    23462598.192    23462597.876
        32.000          28.100
 118292831.815 6  92176227.792 5  22510381.174    22510379.243    22510381.139
        39.000          34.000
 126462030.512 3  98541847.807 2  24064920.628    24064919.996    24064919.773
        23.800          15.100
 113346654.352 7  88322076.487 6  21569144.463    21569143.174    21569144.614
        44.000          41.000
 128749068.939 3 100323960.171 2  24500127.103    24500125.671    24500126.461
        22.100          16.100
 107254700.965 7  83575101.161 8  20409885.617    20409883.867    20409885.051
        43.000          48.000
 114317619.050 7  89078660.465 6  21753922.472    21753924.093    21753921.982
        46.000          38.000
 124351926.391 4  96897595.057 4  23663393.936    23663396.591    23663393.255
        27.100          27.100
 111208781.724 7  86656215.553 6  21162312.970    21162308.977    21162311.073
        45.000          41.000
 12  1  1  1 14 30.0000000  0  9G32G12G18G31G11G14G25G 1G22
 123210513.213 5  96008194.869 4  23446180.136    23446179.773    23446179.256
        32.000          28.100
 118321429.335 6  92198511.589 5  22515822.867    22515821.247    22515822.984
        39.000          34.000
 126571014.114 3  98626769.982 2  24085659.127    24085659.039    24085658.197
        22.100          16.100
 113274011.392 7  88265471.610 6  21555320.781    21555319.752    21555320.930
        44.000          41.000
 128793619.608 3 100358674.996 2  24508604.539    24508603.432    24508603.640
        21.100          17.800
 107254856.580 7  83575222.417 8  20409915.230    20409913.387    20409914.599
        43.000          48.000
 114283211.048 7  89051849.050 6  21747375.266    21747376.539    21747374.561
        46.000          38.000
 124341226.801 4  96889257.718 4  23661357.958    23661359.452    23661357.417
        25.900          24.900
 111275808.297 7  86708444.025 6  21175067.195    21175063.702    21175065.865
        45.000          41.000
 12  1  1  1 15  0.0000000  0  9G32G12G18G31G11G14G25G 1G22
 123124457.072 5  95941138.161 4  23429804.229    23429803.852    23429803.414
        33.000          28.100
 118350630.143 6  92221265.487 5  22521379.454    22521378.175    22521379.450
        38.000          34.000
 126680136.548 3  98711800.412 1  24106423.333    24106424.413    24106423.322
        19.900          11.000
 113201742.508 7  88209158.232 6  21541568.592    21541567.550    21541568.709
        44.000          41.000
 128838576.003 3 100393705.960 2  24517158.345    24517157.843    24517158.221
        23.000          15.100
 107255312.062 7  83575577.337 8  20410001.628    20410000.139    20410001.101
        42.000          48.000
 114249382.601 7  89025489.244 6  21740937.525    21740939.096    21740937.047
        46.000          38.000
 124331101.679 4  96881368.012 4  23659431.097    23659433.038    23659430.398
        27.100          25.900
 111343264.378 7  86761007.185 6  21187902.870    21187900.155    21187902.345
        46.000          41.000
 12  1  1  1 15 30.0000000  0  9G32G12G18G31G11G14G25G 1G22
 123038625.507 5  95874256.435 4  23413470.793    23413470.709    23413470.022
        32.000          27.100
 118380433.290 6  92244488.719 5  22527051.063    22527049.394    22527050.940
        38.000          34.000
 126789395.468 2  98796937.140 2  24127213.458    24127215.255    24127213.725
        17.800          12.600
 113129848.667 7  88153137.086 6  21527887.553    21527886.262    21527887.662
        44.000          41.000
 128883935.910 3 100429051.366 2  24525789.994    24525789.445    24525789.813
        21.100          17.000
 107256067.853 7  83576166.270 8  20410145.525    20410144.032    20410145.048
        42.000          48.000
 114216135.122 7  88999582.130 6  21734610.813    21734612.297    21734610.287
        46.000          38.000
 124321550.976 4  96873925.930 4  23657613.457    23657615.773    23657613.013
        24.900          27.100
 111411148.583 7  86813903.957 6  21200820.888    21200818.131    21200820.323
        46.000          41.000
 12  1  1  1 16  0.0000000  0  9G32G12G18G31G11G14G25G 1G22
 122953020.599 5  95807551.321 4  23397180.683    23397180.683    23397180.019
        32.000          28.100
 118410837.527 6  92268180.343 5  22532837.032    22532835.324    22532836.832
        38.000          34.000
 126898788.367 3  98882178.287 2  24148032.030    24148033.295    24148031.483
        23.000          17.800
 113058330.659 7  88097408.786 6  21514278.354    21514276.950    21514278.396
        44.000          41.000
 128929696.911 4 100464709.278 2  24534499.341    24534497.856    24534498.698
        24.900          17.800
 107257124.117 7  83576989.346 8  20410346.456    20410344.966    20410346.040
        42.000          48.000
 114183470.044 7  88974128.832 6  21728395.155    21728396.467    21728394.428
        46.000          38.000
 124312574.729 4  96866931.466 4  23655904.863    23655907.148    23655904.760
        25.900          24.900
 111479458.937 7  86867132.786 6  21213820.220    21213817.346    21213819.335
        45.000          41.000
 12  1  1  1 16 30.0000000  0  9G32G12G18G31G11G14G25G 1G22
 122867644.382 5  95741024.429 4  23380934.116    23380933.981    23380933.336
        32.000          28.100
 118441842.092 6  92292339.741 5  22538737.123    22538735.050    22538736.773
        38.000          34.000
 127008314.302 2  98967523.071 2  24168874.281    24168874.775    24168873.005
        17.800          16.100
 112987189.456 7  88041974.110 7  21500740.638    21500739.370    21500740.600
        44.000          42.000
 128975856.844 3 100500678.050 2  24543282.337    24543281.260    24543282.336
        23.800          15.100
 107258481.215 7  83578046.839 8  20410604.723    20410603.155    20410604.250
        42.000          48.000
 114151388.816 7  88949130.497 6  21722289.818    21722291.543    21722289.372
        46.000          38.000
 124304172.868 4  96860384.570 4  23654306.428    23654308.615    23654305.996
        28.100          24.900
 111548194.735 7  86920693.123 6  21226900.589    21226897.334    21226899.456
        45.000          41.000
 12  1  1  1 17  0.0000000  0  9G32G12G18G31G11G14G25G 1G22
 122782499.049 5  95674677.455 5  23364731.695    23364731.462    23364730.838
        32.000          30.100
 118473445.718 6  92316965.945 5  22544751.101    22544749.034    22544750.641
        38.000          34.000
 127117970.839 2  99052969.574 3  24189741.008    24189742.373    24189740.631
        17.800          19.900
 112916426.494 7  87986834.172 7  21487275.024    21487273.393    21487274.912
        44.000          42.000
 129022413.339 3 100536955.867 2  24552141.929    24552141.110    24552141.983
        23.000          17.000
 107260139.078 7  83579338.692 8  20410920.165    20410918.645    20410919.664
        42.000          48.000
 114119892.834 7  88924588.193 6  21716296.496    21716297.945    21716296.021
        46.000          38.000
 124296345.372 4  96854285.235 4  23652817.101    23652819.595    23652816.631
        27.100          27.100
 111617354.099 7  86974583.512 6  21240061.687    21240057.986    21240060.015
        45.000          41.000
 12  1  1  1 17 30.0000000  0  9G32G12G18G31G11G14G25G 1G22
 122697586.686 5  95608511.993 5  23348573.519    23348573.260    23348572.621
        32.000          30.100
 118505647.297 6  92342058.093 5  22550878.419    22550876.637    22550878.366
        38.000          34.000
 127227755.678 3  99138516.111 2  24210633.226    24210633.588    24210632.582
        21.100          17.000
 112846041.845 7  87931989.016 7  21473881.167    21473879.730    21473881.097
        44.000          42.000
 129069363.979 4 100573540.788 2  24561076.305    24561075.310    24561076.198
        24.900          15.100
 107262098.411 7  83580865.451 8  20411292.963    20411291.446    20411292.494
        42.000          48.000
 114088983.445 7  88900502.973 6  21710414.588    21710416.113    21710414.108
        46.000          39.000
 124289092.071 4  96848633.318 4  23651436.649    23651438.958    23651436.168
        25.900          25.900
 111686935.594 7  87028802.834 6  21253302.372    21253298.709    21253300.848
        45.000          40.000
 12  1  1  1 18  0.0000000  0  9G32G12G18G31G11G14G25G 1G22
 122612909.476 5  95542529.781 5  23332459.432    23332459.762    23332458.838
        32.000          30.100
 118538445.768 6  92367615.350 5  22557119.744    22557117.826    22557119.598
        38.000          34.000
 127337666.871 3  99224161.097 2  24231549.461    24231549.344    24231548.908
        23.000          15.100
 112776036.667 7  87877439.556 7  21460559.629    21460558.202    21460559.570
        44.000          42.000
 129116706.791 3 100610431.313 2  24570085.501    24570084.195    24570085.226
        23.800          15.100
 107264359.483 7  83582627.322 8  20411723.273    20411721.677    20411722.757
        42.000          48.000
 114058662.006 7  88876875.891 6  21704644.515    21704646.255    21704644.017
        46.000          39.000
 124282412.906 4  96843428.789 3  23650165.612    23650167.686    23650165.060
        27.100          23.800
 111756937.482 7  87083349.741 6  21266622.820    21266619.773    21266621.673
        45.000          40.000
 12  1  1  1 18 30.0000000  0  9G32G12G18G31G11G14G25G 1G22
 122528469.410 5  95476732.353 5  23316391.767    23316391.241    23316390.868
        33.000          30.100
 118571840.292 6  92393637.068 5  22563474.960    22563473.026    22563474.539
        38.000          34.000
 127447702.483 3  99309903.063 2  24252488.271    24252488.604    24252487.869
        23.000          15.100
 112706412.079 7  87823186.658 7  21447310.529    21447308.989    21447310.431
        44.000          42.000
 129164439.307 3 100647625.492 2  24579168.793    24579167.557    24579168.362
        23.800          17.000
 107266922.122 7  83584624.184 8  20412210.919    20412209.445    20412210.467
        42.000          48.000
 114028929.827 7  88853707.980 6  21698987.084    21698988.299    21698986.409
        46.000          39.000
 124276307.710 4  96838671.497 4  23649003.541    23649006.002    23649003.320
        27.100          24.900
 111827358.877 7  87138223.536 6  21280023.320    21280020.535    21280022.601
        45.000          40.000
 12  1  1  1 19  0.0000000  0  9G32G12G18G31G11G14G25G 1G22
 122444268.653 5  95411121.399 4  23300368.953    23300368.196    23300367.844
        34.000          29.000
 118605829.262 6  92420121.972 5  22569942.554    22569940.916    22569942.315
        38.000          34.000
 127557860.502 3  99395740.436 2  24273450.516    24273450.969    24273449.980
        19.900          15.100
 112637168.997 7  87769231.038 7  21434133.742    21434132.589    21434133.822
        44.000          42.000
 129212558.999 3 100685121.386 2  24588325.651    24588324.197    24588325.217
        23.000          13.900
 107269786.760 7  83586856.365 8  20412756.174    20412754.632    20412755.694
        42.000          48.000
 113999788.251 7  88831000.278 6  21693441.498    21693442.797    21693440.867
        46.000          39.000
 124270776.318 4  96834361.335 4  23647951.433    23647953.454    23647950.842
        27.100          27.100
 111898197.895 7  87193422.760 6  21293503.621    21293500.682    21293502.781
        45.000          40.000
 12  1  1  1 19 30.0000000  0  9G32G12G18G31G11G14G25G 1G22
 122360309.396 5  95345698.618 4  23284391.733    23284391.438    23284390.676
        33.000          29.000
 118640411.302 6  92447069.026 5  22576523.086    22576521.774    22576523.094
        38.000          35.100
 127668138.749 2  99481671.426 2  24294434.741    24294436.558    24294434.611
        16.100          13.900
 112568308.306 7  87715573.389 7  21421029.751    21421028.797    21421029.941
        44.000          42.000
 129261063.823 3 100722917.357 1  24597555.406    24597554.847    24597555.323
        23.000           9.000
 107272953.825 7  83589324.186 8  20413358.877    20413357.195    20413358.332
        42.000          48.000
 113971238.479 7  88808753.725 6  21688008.275    21688009.964    21688007.847
        46.000          39.000
 124265818.550 4  96830498.145 4  23647007.383    23647010.119    23647007.080
        25.900          25.900
 111969452.968 7  87248946.170 6  21307063.817    21307060.056    21307062.253
        45.000          40.000
 12  1  1  1 20  0.0000000  0  9G32G12G18G31G11G14G25G 1G22
 122276593.747 5  95280465.672 4  23268460.890    23268460.660    23268460.241
        32.000          29.000
 118675585.944 6  92474477.851 5  22583216.866    22583215.275    22583216.728
        38.000          34.000
 127778535.107 2  99567694.450 1  24315442.075    24315443.855    24315442.133
        17.800           9.000
 112499830.679 7  87662214.229 7  21407999.263    21407997.844    21407999.232
        44.000          42.000
 129309951.440 3 100761011.579 2  24606858.510    24606857.402    24606858.171
        23.000          12.600
 107276423.416 7  83592027.737 8  20414019.094    20414017.395    20414018.579
        42.000          48.000
 113943281.799 7  88786969.310 6  21682688.538    21682690.036    21682687.929
        46.000          39.000
 124261434.176 4  96827081.767 4  23646173.740    23646175.835    23646173.082
        28.100          25.900
 112041122.758 7  87304792.735 6  21320702.102    21320698.538    21320700.575
        45.000          40.000
 12  1  1  1 20 30.0000000  0  9G32G12G18G31G11G14G25G 1G22
 122193123.829 5  95215424.224 4  23252577.302    23252576.939    23252576.428
        32.000          29.000
 118711351.491 6  92502347.117 5  22590023.148    22590021.208    22590022.681
        38.000          35.100
 127889047.702 3  99653808.053 1  24336473.634    24336473.905    24336472.674
        21.100          11.000
 112431736.947 7  87609154.210 7  21395041.679    21395039.865    21395041.450
        45.000          42.000
 129359219.318 3 100799402.144 1  24616234.277    24616232.347    24616233.680
        23.000           9.000
 107280195.730 7  83594967.184 8  20414737.034    20414735.251    20414736.436
        42.000          48.000
 113915919.443 7  88765648.006 6  21677481.570    21677483.164    21677481.014
        46.000          39.000
 124257622.953 4  96824112.000 4  23645448.203    23645450.272    23645447.756
        27.100          27.100
 112113205.454 7  87360961.044 6  21334418.620    21334415.485    21334417.487
        45.000          40.000
 12  1  1  1 21  0.0000000  0  9G32G12G18G31G11G14G25G 1G22
 122109901.704 5  95150575.832 4  23236740.502    23236740.087    23236739.864
        34.000          29.000
 118747706.750 6  92530675.889 5  22596940.675    22596939.418    22596940.688
        38.000          35.100
 127999674.496 3  99740010.692 1  24357524.248    24357525.410    24357524.143
        21.100          11.000
 112364028.170 7  87556394.155 7  21382156.937    21382155.326    21382156.943
        45.000          42.000
 129408865.247 3 100838087.289 2  24625681.579    24625680.960    24625681.334
        23.000          17.000
 107284271.136 7  83598142.810 8  20415512.606    20415510.790    20415512.067
        42.000          48.000
 113889152.577 7  88744790.723 6  21672387.943    21672389.551    21672387.389
        46.000          39.000
 124254384.633 4  96821588.638 4  23644832.339    23644834.326    23644831.783
        27.100          27.100
 112185699.820 7  87417450.147 6  21348212.791    21348210.687    21348212.570
        45.000          40.000
 12  1  1  1 21 30.0000000  0  8G32G12G31G11G14G25G 1G22
 122026929.528 5  95085922.195 5  23220951.436    23220951.083    23220950.760
        34.000          30.100
 118784650.384 6  92559463.148 5  22603970.942    22603969.303    22603970.804
        38.000          35.100
 112296704.964 7  87503934.534 7  21369345.733    21369343.980    21369345.544
        44.000          42.000
 129458886.602 3 100877064.977 2  24635200.249    24635198.781    24635199.684
        22.100          16.100
 107288649.900 7  83601554.819 8  20416345.934    20416344.028    20416345.330
        42.000          48.000
 113862982.406 7  88724398.401 6  21667408.324    21667409.538    21667407.553
        47.000          39.000
 124251718.892 4  96819511.437 4  23644325.148    23644327.274    23644324.412
        28.100          27.100
 112258603.912 7  87474258.509 6  21362086.941    21362083.833    21362085.803
        45.000          39.000
 12  1  1  1 22  0.0000000  0  8G32G12G31G11G14G25G 1G22
 121944209.538 5  95021465.086 5  23205210.137    23205209.939    23205209.426
        33.000          30.100
 118822181.160 6  92588707.909 5  22611112.986    22611111.396    22611112.812
        38.000          35.100
 112229768.373 7  87451776.180 7  21356608.165    21356606.465    21356608.028
        45.000          42.000
 129509281.104 3 100916333.432 2  24644789.904    24644788.525    24644789.099
        19.900          15.100
 107293332.396 7  83605203.512 8  20417236.793    20417235.063    20417236.380
        42.000          48.000
 113837410.089 7  88704471.939 6  21662541.655    21662543.183    21662541.197
        47.000          39.000
 124249625.428 4  96817880.158 4  23643926.202    23643928.746    23643925.764
        28.100          27.100
 112331916.329 7  87531385.039 6  21376038.536    21376034.814    21376036.746
        44.000          40.000
 12  1  1  1 22 30.0000000  0  8G32G12G31G11G14G25G 1G22
 121861743.814 5  94957206.099 5  23189518.270    23189517.274    23189517.173
        34.000          30.100
 118860297.955 6  92618409.299 5  22618366.471    22618364.772    22618366.282
        37.000          35.100
 112163218.981 7  87399919.541 7  21343943.810    21343942.712    21343943.944
        45.000          42.000
 129560046.400 3 100955890.816 2  24654449.947    24654449.363    24654449.664
        21.100          15.100
 107298319.009 7  83609089.182 8  20418185.833    20418184.030    20418185.324
        43.000          48.000
 113812436.702 7  88685012.171 6  21657789.253    21657790.797    21657788.825
        47.000          39.000
 124248103.902 4  96816694.561 4  23643636.359    23643639.219    23643636.153
        27.100          27.100
 112405635.583 7  87588828.588 6  21390066.573    21390063.151    21390065.105
        44.000          40.000
 12  1  1  1 23  0.0000000  0  8G32G12G31G11G14G25G 1G22
 121779534.495 5  94893146.908 4  23173874.600    23173873.008    23173873.464
        34.000          29.000
 118898999.112 6  92648566.040 5  22625730.793    22625729.465    22625730.494
        37.000          35.100
 112097057.492 7  87348365.159 7  21331353.678    21331352.431    21331353.828
        45.000          42.000
 129611179.988 3 100995735.150 2  24664181.029    24664179.132    24664180.410
        21.100          13.900
 107303609.255 7  83613211.453 8  20419192.767    20419190.881    20419192.114
        42.000          48.000
 113788063.384 7  88666019.991 6  21653151.351    21653152.820    21653150.833
        47.000          39.000
 124247153.961 4  96815954.324 4  23643456.191    23643458.811    23643455.668
        28.100          29.000
 112479759.928 7  87646587.798 6  21404171.017    21404168.595    21404170.438
        44.000          40.000
 12  1  1  1 23 30.0000000  0  8G32G12G31G11G14G25G 1G22
 121697583.617 5  94829289.102 5  23158279.170    23158278.363    23158278.324
        34.000          30.100
 118938282.860 6  92679176.752 5  22633205.920    22633204.668    22633205.846
        37.000          35.100
 112031285.016 7  87297113.903 7  21318837.717    21318836.294    21318837.722
        45.000          42.000
 129662679.610 3 101035864.731 2  24673980.212    24673979.309    24673980.209
        19.900          13.900
 107309204.091 7  83617571.078 8  20420257.139    20420255.533    20420256.543
        43.000          48.000
 113764291.208 7  88647496.237 6  21648627.800    21648629.142    21648627.057
        46.000          39.000
 124246775.169 4  96815659.194 4  23643383.852    23643386.453    23643383.642
        28.100          28.100
 112554287.595 7  87704661.285 6  21418353.805    21418350.633    21418352.613
        44.000          39.000
 12  1  1  1 24  0.0000000  0  8G32G12G31G11G14G25G 1G22
 121615893.403 5  94765634.408 5  23142733.461    23142733.288    23142732.883
        34.000          31.000
 118978148.735 6  92710241.080 5  22640792.288    22640790.705    22640792.377
        37.000          34.000
 111965901.930 7  87246166.075 7  21306395.722    21306394.283    21306395.676
        45.000          42.000
 129714542.661 3 101076277.509 2  24683849.015    24683848.756    24683849.133
        19.300          13.900
 107315103.679 7  83622168.170 8  20421379.669    20421378.058    20421379.166
        42.000          48.000
 113741121.163 7  88629441.679 6  21644218.685    21644220.027    21644217.923
        46.000          39.000
 124246967.183 4  96815808.812 4  23643420.453    23643422.693    23643419.964
        27.100          27.100
 112629217.157 7  87763047.927 6  21432612.796    21432609.249    21432611.377
        44.000          39.000
 12  1  1  1 24 30.0000000  0  8G32G12G31G11G14G25G 1G22
 121534465.997 5  94702184.502 5  23127238.424    23127238.364    23127237.737
        33.000          31.000
 119018594.943 6  92741757.611 5  22648489.282    22648487.153    22648489.211
        38.000          34.000
 111900909.387 7  87195522.559 7  21294027.952    21294026.542    21294027.982
        45.000          43.000
 129766766.627 3 101116971.479 2  24693786.793    24693786.496    24693786.897
        21.100          12.600
 107321307.950 7  83627002.672 8  20422560.187    20422558.668    20422559.772
        42.000          48.000
 113718554.341 7  88611857.165 6  21639924.130    21639925.659    21639923.458
        46.000          39.000
 124247729.521 4  96816402.852 4  23643565.719    23643567.989    23643565.476
        29.000          27.100
 112704546.975 7  87821746.457 6  21446947.281    21446944.127    21446946.048
        44.000          39.000
 12  1  1  1 25  0.0000000  0  8G32G12G31G11G14G25G 1G22
 121453303.538 5  94638941.047 5  23111794.037    23111793.698    23111792.913
        34.000          31.000
 119059619.636 6  92773724.905 5  22656296.021    22656293.862    22656295.899
        38.000          33.000
 111836308.018 7  87145183.858 7  21281734.778    21281733.421    21281734.832
        45.000          43.000
 129819349.137 3 101157944.876 2  24703793.752    24703792.862    24703793.454
        19.300          15.100
 107327817.303 7  83632074.900 8  20423799.017    20423797.389    20423798.509
        42.000          48.000
 113696591.711 7  88594743.443 6  21635744.796    21635746.251    21635744.227
        47.000          39.000
 124249061.712 4  96817440.925 4  23643818.994    23643821.265    23643818.823
        28.100          27.100
 112780275.352 7  87880755.562 6  21461356.919    21461354.872    21461356.881
        45.000          39.000
 12  1  1  1 25 30.0000000  0  8G32G12G31G11G14G25G 1G22
 121372408.113 5  94575905.671 5  23096399.806    23096399.594    23096398.902
        33.000          31.000
 119101222.033 6  92806142.356 5  22664212.706    22664210.779    22664212.534
        38.000          34.000
 111772098.486 7  87095150.476 7  21269516.349    21269514.788    21269516.293
        45.000          43.000
 129872287.914 3 101199195.873 2  24713867.847    24713866.358    24713867.469
        19.300          15.100
 107334632.176 7  83637385.188 8  20425096.041    20425094.242    20425095.358
        42.000          48.000
 113675234.243 7  88578101.277 6  21631680.721    21631682.032    21631680.071
        47.000          39.000
 124250963.306 4  96818922.703 4  23644180.964    23644183.099    23644180.472
        28.100          27.100
 112856400.549 7  87940073.879 6  21475843.910    21475841.053    21475842.967
        44.000          39.000
 12  1  1  1 26  0.0000000  0  8G32G12G31G11G14G25G 1G22
 121291781.985 5  94513080.140 5  23081056.798    23081056.766    23081056.286
        34.000          32.000
 119143400.211 6  92839008.467 5  22672239.233    22672237.573    22672238.834
        37.000          35.100
 111708281.448 7  87045422.945 7  21257372.269    21257370.700    21257372.217
        45.000          43.000
 129925580.401 3 101240722.471 1  24724009.118    24724007.418    24724008.540
        21.100           9.000
 107341752.622 7  83642933.589 8  20426450.989    20426449.239    20426450.341
        42.000          48.000
 113654482.888 7  88561931.400 6  21627731.362    21627733.371    21627730.926
        47.000          40.000
 124253433.746 4  96820847.739 4  23644651.000    23644653.291    23644650.696
        28.100          28.100
 112932920.904 7  87999700.098 6  21490406.490    21490402.327    21490404.511
        44.000          39.000
 12  1  1  1 26 30.0000000  0  8G32G12G31G11G14G25G 1G22
 121211427.125 5  94450465.979 5  23065766.214    23065765.940    23065765.371
        34.000          31.000
 119186152.668 6  92872322.071 5  22680374.059    22680372.750    22680374.061
        37.000          35.100
 111644857.747 7  86996001.897 7  21245302.963    21245301.437    21245302.872
        45.000          43.000
 129979223.977 2 101282522.675 1  24734216.440    24734215.572    24734216.371
        17.000           9.000
 107349178.972 7  83648720.352 8  20427864.008    20427862.447    20427863.460
        42.000          48.000
 113634338.554 7  88546234.535 6  21623898.225    21623900.116    21623897.676
        46.000          40.000
 124256472.515 4  96823215.619 4  23645228.766    23645231.628    23645228.276
        25.900          28.100
 113009834.455 7  88059632.703 6  21505041.843    21505038.503    21505040.474
        44.000          39.000
 12  1  1  1 27  0.0000000  0  8G32G12G31G11G14G25G 1G22
 121131345.886 5  94388065.031 5  23050527.420    23050526.982    23050526.390
        34.000          31.000
 119229477.921 6  92906082.013 5  22688618.697    22688617.409    22688618.684
        37.000          35.100
 111581827.937 7  86946887.786 7  21233308.798    21233307.449    21233308.786
        46.000          43.000
 130033216.234 2 101324594.566 1  24744491.076    24744489.561    24744490.874
        16.100          11.000
 107356911.406 7  83654745.621 8  20429335.134    20429333.929    20429334.845
        42.000          48.000
 113614802.116 7  88531011.344 6  21620180.808    21620182.186    21620180.051
        47.000          39.000
 124260079.043 4  96826025.905 4  23645915.107    23645918.013    23645914.824
        25.900          27.100
 113087140.206 7  88119870.930 6  21519750.574    21519749.330    21519751.415
        44.000          39.000
 12  1  1  1 27 30.0000000  0  8G32G12G31G11G14G25G 1G22
 121051540.221 5  94325878.819 5  23035340.829    23035340.440    23035339.810
        34.000          31.000
 119273374.828 6  92940287.398 5  22696971.890    22696970.439    22696971.948
        37.000          34.000
 111519193.013 7  86898081.377 7  21221389.686    21221388.387    21221389.705
        45.000          43.000
 130087554.418 2 101366936.025 2  24754831.161    24754830.008    24754830.935
        15.100          15.100
 107364950.370 7  83661009.739 8  20430865.189    20430863.730    20430864.697
        42.000          48.000
 113595874.504 7  88516262.582 6  21616578.781    21616580.267    21616578.139
        46.000          39.000
 124264252.761 4  96829278.168 4  23646709.724    23646711.849    23646709.069
        24.900          25.900
 113164835.807 7  88180412.942 6  21534536.912    21534534.482    21534536.300
        44.000          39.000
 12  1  1  1 28  0.0000000  0  8G32G12G31G11G14G25G 1G22
 120972012.392 5  94263909.090 5  23020206.881    23020206.801    23020206.353
        34.000          31.000
 119317841.052 6  92974936.411 5  22705434.165    22705432.241    22705433.791
        37.000          34.000
 111456953.549 7  86849583.113 7  21209545.944    21209544.444    21209545.972
        45.000          43.000
 130142236.273 3 101409545.275 2  24765237.866    24765235.920    24765237.441
        21.100          17.000
 107373296.007 7  83667512.820 8  20432453.484    20432451.780    20432452.849
        42.000          48.000
 113577556.535 7  88501988.862 6  21613092.793    21613094.760    21613092.270
        46.000          40.000
 124268993.033 4  96832971.893 4  23647611.926    23647613.897    23647611.419
        28.100          25.900
 113242919.662 7  88241257.464 6  21549397.751    21549393.405    21549395.552
        44.000          39.000
 12  1  1  1 28 30.0000000  0  8G32G12G31G11G14G25G 1G22
 120892764.512 5  94202157.510 5  23005127.139    23005126.341    23005126.197
        35.100          31.000
 119362875.805 6  93010028.434 5  22714004.077    22714002.084    22714003.714
        37.000          34.000
 111395109.770 7  86801393.179 7  21197777.596    21197775.803    21197777.532
        46.000          43.000
 130197259.311 3 101452420.364 2  24775707.408    24775706.976    24775707.469
        19.300          13.900
 107381948.558 7  83674255.059 7  20434099.865    20434098.187    20434099.338
        42.000          47.000
 113559849.017 7  88488190.821 6  21609723.341    21609725.200    21609722.691
        46.000          40.000
 124274299.255 4  96837106.622 4  23648621.444    23648623.968    23648620.959
        28.100          27.100
 113321389.971 7  88302403.122 6  21564329.101    21564325.783    21564327.640
        43.000          39.000
 12  1  1  1 29  0.0000000  0  8G32G12G31G11G14G25G 1G22
 120813798.767 5  94140625.769 5  22990100.272    22990099.508    22990099.348
        35.100          31.000
 119408477.242 6  93045562.017 5  22722681.862    22722679.804    22722681.524
        37.000          34.000
 111333662.636 7  86753512.311 7  21186084.641    21186082.724    21186084.417
        45.000          43.000
 130252621.090 3 101495559.413 2  24786243.079    24786242.035    24786242.614
        19.300          15.100
 107390908.311 7  83681236.684 7  20435804.859    20435803.162    20435804.353
        42.000          47.000
 113542752.737 7  88474869.058 6  21606469.917    21606471.654    21606469.401
        47.000          40.000
 124280170.749 4  96841681.819 4  23649739.262    23649740.858    23649738.654
        28.100          27.100
 113400245.067 7  88363848.617 6  21579333.137    21579331.282    21579333.194
        43.000          38.000
 12  1  1  1 29 30.0000000  0  7G32G12G31G14G25G 1G22
 120735117.304 6  94079315.547 5  22975127.510    22975127.099    22975126.630
        36.000          31.000
 119454643.456 6  93081535.686 5  22731466.635    22731464.944    22731466.235
        37.000          34.000
 111272612.826 7  86705941.055 7  21174467.220    21174465.396    21174467.146
        46.000          43.000
 107400175.477 7  83688457.851 7  20437568.286    20437566.708    20437567.781
        42.000          47.000
 113526268.424 7  88462024.151 6  21603333.213    21603334.694    21603332.509
        46.000          39.000
 124286606.831 4  96846696.969 4  23650963.290    23650965.914    23650963.244
        28.100          28.100
 113479483.384 7  88425592.740 6  21594413.144    21594409.845    21594411.784
        43.000          38.000
 12  1  1  1 30  0.0000000  0  7G32G12G31G14G25G 1G22
 120656722.165 6  94018228.445 5  22960209.197    22960209.160    22960208.493
        36.000          33.000
 119501372.747 6  93117948.116 5  22740358.660    22740357.172    22740358.519
        37.000          34.000
 111211961.014 7  86658679.923 7  21162925.557    21162923.902    21162925.525
        46.000          43.000
 107409750.176 7  83695918.656 8  20439390.392    20439388.767    20439389.886
        42.000          48.000
 113510396.839 7  88449656.689 6  21600312.644    21600314.570    21600312.170
        47.000          40.000
 124293606.782 4  96852151.468 4  23652295.621    23652298.034    23652295.070
        27.100          28.100
 113559103.058 7  88487634.002 6  21609564.825    21609561.008    21609563.031
        43.000          38.000
 12  1  1  1 30 30.0000000  0  7G32G12G31G14G25G 1G22
 120578615.579 6  93957366.176 5  22945346.060    22945345.971    22945345.331
        36.000          33.000
 119548663.559 6  93154798.102 5  22749357.671    22749355.724    22749357.845
        37.000          33.000
 111151707.702 7  86611729.318 7  21151459.510    21151458.003    21151459.602
        46.000          44.000
 107419633.096 7  83703619.639 8  20441271.014    20441269.407    20441270.555
        42.000          48.000
 113495138.735 7  88437767.274 6  21597409.244    21597411.011    21597408.830
        47.000          40.000
 124301169.880 4  96858044.811 4  23653734.773    23653737.516    23653734.533
        28.100          29.000
 113639102.214 7  88549970.980 6  21624786.308    21624784.460    21624786.314
        43.000          38.000
 12  1  1  1 31  0.0000000  0  7G32G12G31G14G25G 1G22
 120500799.705 5  93896730.441 5  22930538.455    22930538.059    22930537.759
        35.100          33.000
 119596514.233 6  93192084.350 5  22758463.867    22758461.778    22758463.625
        37.000          33.000
 111091853.727 7  86565089.877 7  21140069.740    21140068.102    21140069.712
        46.000          43.000
 107429824.163 7  83711560.739 8  20443210.322    20443208.696    20443209.851
        42.000          48.000
 113480494.779 7  88426356.406 6  21594622.812    21594624.202    21594622.158
        47.000          39.000
 124309295.367 4  96864376.340 4  23655281.022    23655283.392    23655280.472
        27.100          27.100
 113719478.945 7  88612602.181 6  21640081.814    21640079.480    21640081.696
        43.000          38.000
 12  1  1  1 31 30.0000000  0  7G32G12G31G14G25G 1G22
 120423276.586 5  93836322.831 5  22915786.646    22915785.787    22915785.557
        35.100          32.000
 119644923.499 6  93229805.851 5  22767675.473    22767673.454    22767675.350
        36.000          33.000
 111032399.705 7  86518762.088 7  21128755.878    21128754.311    21128755.914
        46.000          44.000
 107440323.637 7  83719742.146 8  20445208.354    20445206.716    20445207.823
        43.000          48.000
 113466465.602 7  88415424.590 6  21591953.498    21591954.517    21591952.616
        47.000          39.000
 124317982.437 4  96871145.503 4  23656934.259    23656936.003    23656933.651
        28.100          27.100
 113800231.693 7  88675526.371 6  21655451.124    21655446.264    21655448.713
        43.000          38.000
 12  1  1  1 32  0.0000000  0  7G32G12G31G14G25G 1G22
 120346048.559 6  93776145.170 5  22901090.152    22901089.702    22901089.329
        36.000          33.000
 119693889.080 6  93267960.857 5  22776993.481    22776991.917    22776993.190
        37.000          34.000
 110973345.993 7  86472746.226 7  21117518.260    21117516.803    21117518.310
        46.000          44.000
 107451131.891 7  83728164.167 7  20447265.014    20447263.447    20447264.487
        42.000          47.000
 113453051.851 7  88404972.328 6  21589400.521    21589401.977    21589400.027
        47.000          39.000
 124327230.364 4  96878351.666 4  23658693.838    23658696.027    23658693.512
        27.100          27.100
 113881358.640 7  88738742.126 6  21670888.101    21670884.277    21670886.380
        43.000          37.000
 12  1  1  1 32 30.0000000  0  7G32G12G31G14G25G 1G22
 120269117.658 6  93716199.030 5  22886451.011    22886450.438    22886450.055
        36.000          32.000
 119743409.172 6  93306547.938 5  22786416.966    22786415.478    22786416.806
        37.000          34.000
 110914692.877 7  86427042.519 7  21106357.033    21106355.419    21106356.963
        46.000          44.000
 107462248.937 7  83736826.806 7  20449380.500    20449378.870    20449379.970
        42.000          47.000
 113440254.140 7  88395000.101 6  21586965.498    21586966.680    21586964.741
        47.000          39.000
 124337038.232 4  96885994.180 4  23660560.777    23660562.949    23660560.259
        28.100          29.000
 113962857.614 7  88802247.809 6  21686394.756    21686393.076    21686395.138
        43.000          38.000
 12  1  1  1 33  0.0000000  0  7G32G12G31G14G25G 1G22
 120192486.057 6  93656486.101 5  22871867.913    22871867.830    22871867.339
        37.000          32.000
 119793482.409 6  93345566.044 5  22795945.336    22795944.006    22795945.248
        36.000          34.000
 110856441.194 7  86381651.614 7  21095272.104    21095270.529    21095272.164
        46.000          44.000
 107473675.121 7  83745730.332 7  20451554.948    20451553.240    20451554.411
        43.000          47.000
 113428073.042 7  88385508.344 6  21584647.066    21584648.650    21584646.638
        47.000          39.000
 124347405.234 4  96894072.349 4  23662533.283    23662535.593    23662532.538
        27.100          29.000
 114044726.825 7  88866041.984 6  21701975.589    21701972.303    21701974.197
        43.000          37.000
 12  1  1  1 33 30.0000000  0  7G32G12G31G14G25G 1G22
 120116155.815 6  93597008.007 5  22857343.326    22857342.482    22857342.310
        36.000          33.000
 119844106.818 6  93385013.629 5  22805579.317    22805577.066    22805578.891
        37.000          33.000
 110798591.522 7  86336573.969 7  21084263.691    21084262.183    21084263.647
        46.000          44.000
 107485410.809 7  83754875.027 7  20453788.221    20453786.494    20453787.632
        43.000          47.000
 113416509.130 7  88376497.520 6  21582446.601    21582448.078    21582446.073
        47.000          39.000
 124358330.486 4  96902585.562 4  23664612.310    23664614.397    23664611.913
        28.100          25.900
 114126964.421 7  88930123.189 6  21717625.521    21717621.562    21717623.700
        42.000          37.000
 12  1  1  1 34  0.0000000  0  7G32G12G31G14G25G 1G22
 120040129.121 6  93537766.440 5  22842875.345    22842875.087    22842874.588
        36.000          33.000
 119895280.680 6  93424889.353 5  22815316.896    22815315.063    22815316.481
        36.000          33.000
 110741144.262 7  86291809.892 7  21073331.932    21073330.242    21073331.831
        46.000          44.000
 107497456.335 7  83764261.150 7  20456080.332    20456078.638    20456079.864
        43.000          47.000
 113405562.878 7  88367967.988 6  21580363.559    21580365.091    21580363.018
        47.000          39.000
 124369813.076 4  96911533.042 4  23666797.187    23666799.512    23666796.836
        29.000          28.100
 114209568.924 7  88994490.319 6  21733342.919    21733340.676    21733342.804
        43.000          37.000
 12  1  1  1 34 30.0000000  0  7G32G12G31G14G25G 1G22
 119964408.154 6  93478763.107 5  22828465.826    22828465.911    22828465.257
        36.000          33.000
 119947002.026 6  93465191.711 5  22825159.132    22825157.439    22825158.938
        36.000          33.000
 110684100.091 7  86247359.908 7  21062476.806    21062475.008    21062476.784
        46.000          44.000
 107509811.618 7  83773888.630 7  20458431.582    20458429.814    20458430.972
        43.000          47.000
 113395234.855 7  88359920.190 6  21578398.127    21578399.721    21578397.694
        47.000          39.000
 124381852.108 4  96920914.092 4  23669088.610    23669090.117    23669088.242
        29.000          27.100
 114292538.169 7  89059141.658 6  21749133.228    21749129.404    21749131.454
        42.000          37.000
 12  1  1  1 35  0.0000000  0  7G32G12G31G14G25G 1G22
 119888995.064 6  93419999.676 5  22814115.999    22814115.354    22814115.022
        36.000          33.000
 119999268.967 6  93505919.202 5  22835105.195    22835103.720    22835105.138
        37.000          34.000
 110627459.672 7  86203224.537 7  21051698.148    21051696.742    21051698.299
        46.000          44.000
 107522477.067 7  83783757.804 7  20460841.760    20460840.029    20460841.182
        43.000          47.000
 113385525.496 7  88352354.470 6  21576550.802    21576552.123    21576550.179
        47.000          39.000
 124394446.607 4  96930728.006 4  23671484.212    23671486.823    23671484.009
        25.900          25.900
 114375870.165 7  89124075.628 6  21764990.873    21764986.976    21764989.174
        43.000          37.000
 12  1  1  1 35 30.0000000  0  7G32G12G31G14G25G 1G22
 119813892.014 6  93361477.843 5  22799824.048    22799823.525    22799823.251
        37.000          33.000
 120052079.508 6  93547070.282 5  22845154.824    22845153.375    22845154.651
        36.000          34.000
 110571223.293 7  86159403.997 7  21040996.888    21040995.416    21040996.864
        46.000          44.000
 107535452.955 7  83793868.870 7  20463310.842    20463309.324    20463310.405
        43.000          47.000
 113376435.227 7  88345271.163 6  21574820.864    21574822.222    21574820.274
        47.000          39.000
 124407595.614 4  96940973.995 4  23673986.894    23673989.275    23673986.344
        27.100          27.100
 114459563.313 7  89189291.040 6  21780915.478    21780913.279    21780915.235
        43.000          37.000
 12  1  1  1 36  0.0000000  0  7G32G12G31G14G25G 1G22
 119739101.034 6  93303199.169 5  22785592.066    22785592.066    22785591.083
        37.000          33.000
 120105432.361 5  93588643.942 5  22855307.558    22855305.735    22855307.106
        35.100          33.000
 110515391.451 7  86115898.688 7  21030372.510    21030370.834    21030372.409
        46.000          44.000
 107548739.421 7  83804221.955 7  20465839.177    20465837.609    20465838.632
        43.000          47.000
 113367964.520 7  88338670.621 6  21573208.930    21573210.244    21573208.429
        47.000          39.000
 124421298.128 4  96951651.281 4  23676593.940    23676596.868    23676593.938
        27.100          25.900
 114543615.587 7  89254786.292 6  21796911.111    21796907.834    21796909.805
        42.000          37.000
 12  1  1  1 36 30.0000000  0  7G32G12G31G14G25G 1G22
 119664624.347 6  93245165.387 5  22771419.508    22771418.825    22771418.758
        37.000          33.000
 120159325.300 6  93630638.437 5  22865562.986    22865560.882    22865562.956
        37.000          32.000
 110459964.551 7  86072708.914 7  21019825.065    21019823.496    21019825.052
        46.000          44.000
 107562336.749 7  83814817.270 7  20468426.664    20468425.072    20468426.192
        43.000          47.000
 113360113.740 7  88332553.150 6  21571715.156    21571716.338    21571714.447
        47.000          39.000
 124435553.163 4  96962759.101 4  23679307.594    23679309.741    23679306.800
        27.100          27.100
 114628025.198 7  89320559.977 6  21812973.914    21812970.389    21812972.501
        43.000          37.000
 12  1  1  1 37  0.0000000  0  7G32G12G31G14G25G 1G22
 119590463.973 6  93187378.097 5  22757307.057    22757306.617    22757306.283
        37.000          34.000
 120213756.245 6  93673052.172 5  22875921.185    22875919.145    22875920.861
        36.000          34.000
 110404943.177 7  86029835.131 7  21009354.761    21009353.138    21009354.769
        46.000          44.000
 107576245.414 7  83825655.193 7  20471073.458    20471071.774    20471072.908
        43.000          47.000
 113352883.242 7  88326919.009 6  21570339.135    21570340.399    21570338.581
        47.000          39.000
 124450359.631 4  96974296.611 4  23682124.050    23682126.670    23682123.920
        24.900          24.900
 114712789.885 7  89386610.361 6  21829102.970    21829100.593    21829102.751
        42.000          36.000
 12  1  1  1 37 30.0000000  0  7G32G12G31G14G25G 1G22
 119516622.175 6  93129839.050 5  22743255.345    22743255.116    22743254.454
        37.000          33.000
 120268723.417 6  93715883.742 5  22886380.697    22886378.810    22886380.493
        36.000          33.000
 110350327.583 7  85987277.538 7  20998961.848    20998960.058    20998961.797
        46.000          44.000
 107590465.421 7  83836735.717 7  20473779.300    20473777.783    20473778.907
        43.000          47.000
 113346273.390 8  88321768.489 6  21569081.532    21569082.507    21569080.875
        48.000          39.000
 124465716.479 4  96986262.994 4  23685047.201    23685049.028    23685046.564
        25.900          24.900
 114797908.043 7  89452936.170 6  21845302.540    21845298.208    21845300.566
        42.000          37.000
 12  1  1  1 38  0.0000000  0  7G32G12G31G14G25G 1G22
 119443101.063 6  93072549.887 5  22729264.534    22729264.638    22729263.756
        37.000          34.000
 120324224.867 6  93759131.623 5  22896942.103    22896940.758    22896941.885
        36.000          33.000
 110296118.409 7  85945036.642 7  20988645.855    20988644.485    20988646.017
        46.000          44.000
 107604997.169 7  83848059.152 7  20476544.768    20476543.093    20476544.217
        43.000          47.000
 113340284.495 8  88317101.828 6  21567941.593    21567942.866    21567941.067
        48.000          39.000
 124481622.638 4  96998657.408 4  23688073.767    23688076.144    23688073.422
        27.100          25.900
 114883377.504 7  89519535.708 6  21861565.100    21861562.615    21861564.351
        42.000          37.000
 12  1  1  1 38 30.0000000  0  8G32G12G20G31G14G25G 1G22
 119369902.730 6  93015512.235 5  22715335.584    22715335.366    22715334.838
        37.000          34.000
 120380258.378 6  93802794.085 5  22907604.698    22907603.667    22907604.698
        36.000          34.000
 128827522.983 3 100385095.229 3  24515053.920    24515053.393    24515052.913
        22.100          19.900
 110242316.217 7  85903112.872 7  20978407.801    20978406.272    20978407.783
        46.000          45.000
 107619840.772 7  83859625.590 7  20479369.156    20479367.749    20479368.738
        43.000          47.000
 113334916.824 7  88312919.232 6  21566920.096    21566921.508    21566919.521
        47.000          39.000
 124498076.953 4  97011478.966 4  23691205.543    23691207.100    23691204.664
        28.100          25.900
 114969196.431 7  89586407.578 6  21877896.051    21877893.522    21877895.298
        42.000          37.000
 12  1  1  1 39  0.0000000  0  8G32G12G20G31G14G25G 1G22
 119297029.251 6  92958727.727 5  22701468.274    22701467.878    22701467.342
        37.000          34.000
 120436822.206 6  93846869.814 5  22918369.196    22918367.452    22918368.922
        36.000          34.000
 128725050.914 3 100305246.907 2  24495554.020    24495553.331    24495553.074
        23.000          17.800
 110188921.058 7  85861506.275 7  20968246.819    20968245.517    20968246.890
        46.000          45.000
 107634996.371 7  83871435.143 7  20482253.189    20482251.737    20482252.830
        43.000          47.000
 113330170.670 7  88309220.947 6  21566017.031    21566018.411    21566016.382
        47.000          39.000
 124515078.363 4  97024726.798 3  23694439.593    23694442.232    23694439.478
        24.900          23.800
 115055363.050 7  89653550.356 6  21894293.675    21894290.351    21894292.116
        42.000          36.000
 12  1  1  1 39 30.0000000  0  8G32G12G20G31G14G25G 1G22
 119224482.908 6  92902198.114 5  22687662.930    22687662.592    22687662.108
        37.000          34.000
 120493914.594 6  93891357.384 5  22929233.220    22929231.395    22929233.167
        36.000          33.000
 128622774.405 3 100225550.929 2  24476090.476    24476090.426    24476090.148
        19.900          15.100
 110135933.727 7  85820217.461 7  20958163.901    20958162.402    20958163.888
        46.000          45.000
 107650464.204 7  83883488.000 7  20485196.941    20485195.123    20485196.369
        43.000          47.000
 113326046.244 7  88306007.121 6  21565231.943    21565233.517    21565231.467
        47.000          39.000
 124532625.628 4  97038400.007 4  23697779.399    23697781.571    23697779.030
        27.100          25.900
 115141875.196 7  89720962.388 6  21910755.473    21910753.123    21910754.835
        42.000          36.000
 12  1  1  1 40  0.0000000  0  8G32G12G20G31G14G25G 1G22
 119152265.645 6  92845924.939 5  22673920.543    22673920.020    22673919.527
        37.000          34.000
 120551533.053 6  93936254.885 5  22940197.831    22940196.286    22940197.601
        36.000          34.000
 128520695.951 3 100146009.295 3  24456666.713    24456665.118    24456666.062
        21.100          19.300
 110083354.229 7  85779246.439 7  20948158.165    20948156.730    20948158.341
        46.000          45.000
 107666244.587 7  83895784.399 7  20488199.784    20488198.084    20488199.271
        43.000          47.000
 113322543.765 7  88303277.936 6  21564565.636    21564566.860    21564564.933
        47.000          39.000
 124550717.618 4  97052497.662 4  23701221.584    23701224.416    23701221.448
        24.900          27.100
 115228730.826 6  89788642.071 6  21927284.650    21927281.159    21927283.134
        41.000          36.000
 12  1  1  1 40 30.0000000  0  8G32G12G20G31G14G25G 1G22
 119080379.741 6  92789909.958 5  22660241.264    22660240.534    22660240.359
        37.000          33.000
 120609675.928 5  93981561.009 5  22951261.678    22951260.335    22951261.464
        35.100          33.000
 128418818.055 3 100066623.965 2  24437279.642    24437279.086    24437278.561
        21.100          17.000
 110031183.156 7  85738593.673 7  20938230.390    20938228.832    20938230.495
        46.000          45.000
 107682337.847 7  83908324.599 7  20491262.170    20491260.575    20491261.628
        43.000          47.000
 113319663.411 7  88301033.524 6  21564017.112    21564018.696    21564016.725
        47.000          39.000
 124569353.147 4  97067018.838 4  23704768.548    23704770.989    23704768.102
        25.900          27.100
 115315927.965 6  89856587.847 6  21943877.098    21943874.305    21943876.050
        41.000          36.000
 12  1  1  1 41  0.0000000  0  8G32G12G20G31G14G25G 1G22
 119008827.284 6  92734154.807 5  22646625.178    22646624.647    22646624.401
        38.000          33.000
 120668340.822 6  94027273.921 5  22962425.132    22962423.754    22962425.345
        36.000          33.000
 128317143.181 3  99987396.829 2  24417931.608    24417931.202    24417931.264
        23.000          15.100
 109979420.738 7  85698259.344 7  20928380.397    20928378.833    20928380.328
        46.000          45.000
 107698744.323 7  83921108.866 7  20494384.011    20494382.621    20494383.646
        43.000          47.000
 113317405.322 7  88299273.986 6  21563587.419    21563589.052    21563586.905
        47.000          39.000
 124588530.925 4  97081962.564 4  23708417.887    23708420.034    23708417.382
        25.900          28.100
 115403464.652 6  89924798.235 6  21960534.287    21960532.022    21960533.706
        41.000          36.000
 12  1  1  1 41 30.0000000  0  8G32G12G20G31G14G25G 1G22
 118937610.404 6  92678661.139 5  22633072.984    22633072.593    22633072.254
        38.000          34.000
 120727525.874 5  94073392.138 5  22973687.800    22973686.234    22973687.586
        35.100          33.000
 128215674.020 3  99908329.910 2  24398621.891    24398621.431    24398621.648
        19.300          12.600
 109928067.501 7  85658243.841 7  20918608.274    20918606.621    20918608.213
        46.000          45.000
 107715463.832 7  83934137.054 7  20497565.826    20497564.217    20497565.306
        43.000          47.000
 113315769.628 7  88297999.435 6  21563276.332    21563277.884    21563275.722
        47.000          39.000
 124608249.782 4  97097327.895 4  23712169.718    23712173.023    23712169.678
        25.900          28.100
 115491338.944 6  89993271.660 5  21977257.813    21977253.914    21977255.881
        41.000          35.100
 12  1  1  1 42  0.0000000  0  8G32G12G20G31G14G25G 1G22
 118866731.155 6  92623430.565 5  22619585.220    22619584.738    22619584.372
        38.000          34.000
 120787229.054 6  94119914.121 5  22985049.442    22985047.247    22985049.123
        36.000          32.000
 128114413.038 2  99829425.279 2  24379353.713    24379353.112    24379352.493
        15.100          17.000
 109877123.636 7  85618547.320 7  20908914.106    20908912.274    20908914.068
        46.000          45.000
 107732496.690 7  83947409.407 7  20500807.022    20500805.436    20500806.529
        43.000          47.000
 113314756.452 7  88297209.955 6  21563083.747    21563085.026    21563083.011
        47.000          39.000
 124628508.383 4  97113113.809 4  23716025.233    23716027.971    23716024.721
        24.900          27.100
 115579548.912 6  90062006.674 6  21994041.349    21994039.739    21994041.610
        41.000          36.000
 12  1  1  1 42 30.0000000  0  8G32G12G20G31G14G25G 1G22
 118796191.660 6  92568464.740 5  22606162.122    22606161.443    22606161.201
        38.000          34.000
 120847447.865 5  94166837.858 5  22996508.082    22996506.573    22996507.989
        35.100          32.000
 128013363.148 3  99750685.126 3  24360124.743    24360123.839    24360123.769
        22.100          19.300
 109826589.537 7  85579170.109 7  20899297.814    20899295.955    20899297.752
        47.000          45.000
 107749843.478 7  83960926.383 7  20504108.088    20504106.438    20504107.498
        43.000          47.000
 113314365.838 7  88296905.592 6  21563008.915    21563010.678    21563008.556
        47.000          39.000
 124649305.450 4  97129319.329 4  23719982.395    23719985.281    23719981.999
        25.900          27.100
 115668092.310 6  90131001.501 5  22010893.229    22010888.882    22010891.113
        40.000          35.100
 12  1  1  1 43  0.0000000  0  8G32G12G20G31G14G25G 1G22
 118725994.077 6  92513765.337 5  22592803.939    22592803.267    22592803.035
        39.000          34.000
 120908180.536 5  94214162.017 5  23008065.338    23008063.867    23008065.015
        35.100          33.000
 127912526.314 3  99672110.998 3  24340935.060    24340934.418    24340935.111
        22.100          19.900
 109776465.542 7  85540112.463 7  20889759.312    20889757.637    20889759.370
        46.000          45.000
 107767504.350 7  83974688.103 7  20507468.753    20507467.142    20507468.263
        43.000          47.000
 113314597.871 7  88297086.418 6  21563053.257    21563054.914    21563052.756
        47.000          39.000
 124670639.683 4  97145943.407 4  23724042.707    23724044.869    23724042.225
        25.900          27.100
 115756967.234 6  90200254.639 6  22027803.697    22027801.427    22027803.104
        41.000          36.000
 12  1  1  1 43 30.0000000  0  8G32G12G20G31G14G25G 1G22
 118656140.392 6  92459333.906 5  22579511.226    22579510.591    22579510.458
        39.000          35.100
 120969425.140 5  94261885.078 5  23019720.237    23019718.265    23019719.685
        35.100          33.000
 127811905.167 3  99593704.957 2  24321786.456    24321786.746    24321786.699
        21.100          17.800
 109726751.848 7  85501374.531 7  20880299.160    20880297.486    20880299.040
        46.000          45.000
 107785479.262 7  83988694.516 7  20510889.456    20510887.656    20510888.875
        43.000          46.000
 113315452.540 7  88297752.409 6  21563216.165    21563217.488    21563215.478
        47.000          39.000
 124692509.748 4  97162984.993 4  23728204.165    23728206.876    23728203.472
        25.900          28.100
 115846171.524 6  90269764.460 5  22044779.643    22044776.378    22044778.177
        40.000          35.100
 12  1  1  1 44  0.0000000  0  8G32G12G20G31G14G25G 1G22
 118586632.779 6  92405172.147 5  22566284.355    22566283.786    22566283.486
        39.000          35.100
 121031179.363 6  94310005.243 5  23031470.558    23031469.321    23031470.695
        36.000          31.000
 127711502.509 3  99515469.150 2  24302682.617    24302680.879    24302681.098
        21.100          16.100
 109677448.911 7  85462956.678 7  20870916.840    20870915.348    20870916.922
        46.000          45.000
 107803768.423 7  84002945.805 7  20514369.644    20514367.931    20514369.080
        43.000          46.000
 113316929.813 7  88298903.536 6  21563497.135    21563498.550    21563496.610
        47.000          39.000
 124714914.279 4  97180443.076 4  23732467.840    23732469.777    23732467.287
        24.900          25.900
 115935703.414 6  90339529.508 5  22061816.859    22061813.893    22061815.652
        41.000          35.100
 12  1  1  1 44 30.0000000  0  8G32G12G20G31G14G25G 1G22
 118517473.379 6  92351281.720 5  22553123.546    22553123.044    22553122.863
        39.000          35.100
 121093440.420 6  94358520.368 5  23043318.980    23043317.122    23043319.036
        36.000          31.000
 127611320.760 3  99437405.443 2  24283618.366    24283616.110    24283617.562
        23.000          17.000
 109628556.808 7  85424858.949 7  20861613.112    20861611.402    20861613.138
        46.000          45.000
 107822372.235 7  84017442.279 7  20517909.653    20517908.077    20517909.229
        43.000          46.000
 113319029.702 7  88300539.818 6  21563896.531    21563898.179    21563896.061
        47.000          39.000
 124737851.869 4  97198316.522 4  23736832.549    23736834.941    23736832.011
        24.900          27.100
 116025560.480 6  90409547.994 5  22078915.217    22078913.153    22078914.941
        41.000          35.100
 12  1  1  1 45  0.0000000  0  8G32G12G20G31G14G25G 1G22
 118448664.252 6  92297664.223 5  22540029.690    22540029.001    22540028.920
        39.000          35.100
 121156207.092 5  94407429.454 5  23055263.139    23055261.258    23055263.017
        35.100          31.000
 127511362.785 4  99359516.138 2  24264597.226    24264595.993    24264596.260
        24.900          17.800
 109580076.082 7  85387081.779 7  20852387.550    20852385.834    20852387.593
        46.000          45.000
 107841290.988 7  84032184.168 7  20521510.017    20521508.260    20521509.436
        43.000          46.000
 113321752.129 7  88302661.197 6  21564414.659    21564416.324    21564414.108
        47.000          39.000
 124761321.142 3  97216604.264 4  23741298.276    23741301.215    23741297.868
        23.800          27.100
 116115740.823 6  90479818.338 5  22096077.966    22096073.942    22096075.855
        40.000          35.100
 12  1  1  1 45 30.0000000  0  8G32G12G20G31G14G25G 1G22
 118380207.524 6  92244321.331 5  22527002.690    22527002.241    22527001.866
        39.000          35.100
 121219476.773 5  94456730.515 5  23067302.840    23067301.471    23067302.716
        35.100          32.000
 127411630.697 3  99281802.824 3  24245618.194    24245617.192    24245617.014
        23.800          19.300
 109532007.039 7  85349625.400 7  20843240.391    20843238.678    20843240.408
        46.000          45.000
 107860524.800 7  84047171.557 7  20525170.195    20525168.361    20525169.569
        43.000          46.000
 113325097.021 7  88305267.617 6  21565051.164    21565052.791    21565050.694
        47.000          39.000
 124785320.707 3  97235305.199 4  23745864.802    23745867.554    23745864.764
        23.800          24.900
 116206242.135 6  90550338.809 5  22113297.023    22113295.660    22113297.662
        40.000          35.100
 12  1  1  1 46  0.0000000  0  8G32G12G20G31G14G25G 1G22
 118312105.217 6  92191254.612 5  22514043.468    22514042.874    22514042.472
        39.000          35.100
 121283247.135 5  94506421.698 5  23079438.538    23079436.255    23079438.216
        35.100          31.000
 127312127.064 3  99204267.544 2  24226681.871    24226681.469    24226681.521
        22.100          17.000
 109484349.944 7  85312490.016 7  20834171.679    20834169.967    20834171.514
        46.000          46.000
 107880073.953 7  84062404.666 7  20528889.969    20528888.508    20528889.544
        43.000          46.000
 113329064.274 7  88308358.991 6  21565806.247    21565807.750    21565805.663
        47.000          39.000
 124809849.030 4  97254418.187 4  23750533.061    23750535.590    23750532.962
        25.900          25.900
 116297062.889 6  90621108.198 5  22130582.671    22130578.292    22130580.418
        40.000          35.100
 12  1  1  1 46 30.0000000  0  8G32G12G20G31G14G25G 1G22
 118244359.400 6  92138465.672 5  22501151.285    22501151.109    22501150.715
        39.000          35.100
 121347515.577 5  94556501.002 5  23091668.182    23091666.229    23091667.791
        35.100          32.000
 127212854.754 3  99126912.520 3  24207791.305    24207791.798    24207791.341
        22.100          19.900
 109437104.511 7  85275675.408 7  20825181.049    20825179.386    20825180.989
        47.000          46.000
 107899938.720 7  84077883.706 7  20532670.333    20532668.655    20532669.735
        43.000          46.000
 113333653.729 7  88311935.192 6  21566679.543    21566680.999    21566678.991
        47.000          39.000
 124834904.696 4  97273942.098 3  23755301.168    23755303.233    23755300.391
        24.900          23.800
 116388200.658 6  90692124.601 5  22147922.790    22147921.409    22147923.356
        40.000          35.100
 12  1  1  1 47  0.0000000  0  8G32G12G20G31G14G25G 1G22
 118176972.254 6  92085956.223 5  22488328.324    22488327.748    22488327.495
        39.000          35.100
 121412280.742 5  94606967.348 5  23103992.187    23103990.537    23103992.075
        34.000          31.000
 127113816.221 3  99049739.683 3  24188946.601    24188945.302    24188945.314
        23.000          19.300
 109390271.307 7  85239182.024 7  20816269.003    20816267.268    20816268.927
        46.000          46.000
 107920119.111 7  84093608.684 7  20536510.319    20536508.774    20536509.866
        43.000          46.000
 113338865.226 7  88315996.106 6  21567671.388    21567672.637    21567670.784
        47.000          39.000
 124860486.217 4  97293875.734 3  23760169.421    23760171.029    23760169.049
        25.900          23.000
 116479653.279 6  90763386.370 5  22165328.230    22165324.239    22165326.218
        39.000          34.000
 12  1  1  1 47 30.0000000  0  8G32G12G20G31G14G25G 1G22
 118109945.839 6  92033727.856 5  22475573.806    22475573.176    22475572.836
        40.000          35.100
 121477540.147 5  94657818.849 5  23116410.606    23116408.746    23116410.502
        34.000          31.000
 127015013.747 3  98972750.759 2  24170143.831    24170143.275    24170143.042
        19.300          17.800
 109343850.624 7  85203010.082 7  20807435.409    20807433.689    20807435.362
        47.000          46.000
 107940615.289 7  84109579.734 7  20540410.709    20540409.089    20540410.170
        43.000          46.000
 113344698.579 7  88320541.580 6  21568781.261    21568782.734    21568780.777
        47.000          39.000
 124886592.078 3  97314217.964 3  23765136.147    23765138.937    23765135.706
        23.800          23.800
 116571418.987 6  90834892.070 5  22182788.289    22182786.916    22182788.291
        40.000          35.100
 12  1  1  1 48  0.0000000  0  8G32G12G20G31G14G25G 1G22
 118043282.195 6  91981782.165 5  22462887.950    22462887.493    22462887.139
        40.000          35.100
 121543291.552 5  94709053.706 5  23128922.996    23128921.309    23128922.611
        35.100          32.000
 126916450.222 2  98895948.041 2  24151387.839    24151387.302    24151387.052
        17.800          15.100
 109297842.605 7  85167159.697 7  20798680.101    20798678.531    20798680.258
        47.000          46.000
 107961427.687 7  84125797.192 7  20544371.233    20544369.542    20544370.740
        43.000          46.000
 113351153.559 7  88325571.440 6  21570009.455    21570010.945    21570009.023
        47.000          39.000
 124913220.729 4  97334967.552 3  23770203.487    23770205.786    23770203.343
        25.900          23.800
 116663495.160 6  90906639.703 5  22200312.128    22200308.369    22200310.151
        39.000          35.100
 12  1  1  1 48 30.0000000  0  8G32G12G20G31G14G25G 1G22
 117976983.304 6  91930120.698 6  22450271.673    22450271.211    22450270.867
        40.000          36.000
 121609532.191 5  94760669.780 5  23141527.770    23141526.420    23141527.621
        34.000          31.000
 126818128.229 3  98819333.527 1  24132678.151    24132676.396    24132677.519
        21.100           9.000
 109252247.466 7  85131631.039 7  20790003.798    20790002.065    20790003.792
        46.000          46.000
 107982556.424 7  84142261.147 7  20548391.987    20548390.196    20548391.344
        43.000          46.000
 113358229.930 7  88331085.501 6  21571356.370    21571357.448    21571355.691
        47.000          39.000
 124940370.613 4  97356123.313 3  23775370.676    23775372.879    23775370.339
        24.900          23.800
 116755880.044 6  90978627.879 5  22217890.703    22217888.611    22217890.474
        40.000          34.000
 12  1  1  1 49  0.0000000  0  8G32G12G20G31G14G25G 1G22
 117911051.368 6  91878745.180 6  22437725.034    22437724.800    22437724.292
        40.000          36.000
 121676260.086 5  94812665.537 5  23154225.799    23154224.331    23154225.999
        35.100          31.000
 126720050.219 3  98742909.100 2  24114014.594    24114013.590    24114013.704
        22.100          15.100
 109207065.096 7  85096424.025 7  20781405.926    20781404.164    20781405.890
        47.000          46.000
 108004001.745 7  84158971.791 7  20552472.857    20552471.113    20552472.210
        43.000          46.000
 113365927.431 7  88337083.553 6  21572820.904    21572822.258    21572820.341
        47.000          39.000
 124968040.177 4  97377684.014 3  23780636.243    23780638.415    23780635.730
        25.900          23.000
 116848571.204 6  91050854.735 5  22235530.792    22235527.073    22235529.030
        39.000          34.000
 12  1  1  1 49 30.0000000  0  8G32G12G20G31G14G25G 1G22
 117845488.384 6  91827657.146 6  22425248.921    22425248.494    22425248.081
        40.000          36.000
 121743472.944 5  94865039.208 5  23167016.036    23167014.434    23167016.026
        35.100          31.000
 126622218.875 3  98666676.953 2  24095398.238    24095396.293    24095397.990
        23.000          16.100
 109162295.959 7  85061539.009 7  20772886.507    20772884.809    20772886.541
        47.000          46.000
 108025763.522 7  84175929.020 7  20556613.708    20556612.242    20556613.283
        43.000          46.000
 113374245.754 7  88343565.365 6  21574403.513    21574405.390    21574403.094
        47.000          39.000
 124996227.796 4  97399648.388 3  23785999.379    23786002.025    23785999.072
        25.900          23.000
 116941566.994 6  91123318.933 5  22253225.937    22253223.592    22253225.322
        39.000          34.000
 12  1  1  1 50  0.0000000  0  8G32G12G20G31G14G25G 1G22
 117780296.465 6  91776858.262 6  22412843.538    22412842.936    22412842.631
        40.000          36.000
 121811168.308 5  94917788.843 5  23179898.762    23179896.498    23179898.197
        34.000          31.000
 126524636.739 4  98590638.901 2  24076829.694    24076827.149    24076828.970
        27.100          12.600
 109117940.403 7  85026976.259 7  20764445.927    20764444.200    20764445.879
        46.000          46.000
 108047842.412 7  84193133.354 7  20560815.238    20560813.723    20560814.846
        43.000          46.000
 113383184.560 7  88350530.673 6  21576104.893    21576106.454    21576104.372
        47.000          39.000
 125024931.883 4  97422015.205 3  23791462.336    23791463.738    23791461.926
        28.100          23.000
 117034864.983 6  91196018.631 5  22270980.435    22270977.844    22270979.284
        39.000          34.000
 12  1  1  1 50 30.0000000  0  8G32G12G20G31G14G25G 1G22
 117715477.515 6  91726349.991 6  22400508.758    22400508.301    22400508.072
        40.000          36.000
 121879343.978 5  94970912.741 5  23192871.249    23192870.242    23192871.335
        34.000          32.000
 126427306.286 4  98514796.972 2  24058307.461    24058305.484    24058306.797
        25.900          17.000
 109073998.016 7  84992735.461 7  20756083.875    20756082.180    20756083.879
        46.000          46.000
 108070238.463 7  84210584.822 7  20565077.258    20565075.561    20565076.700
        43.000          46.000
 113392743.569 7  88357979.261 6  21577924.210    21577925.362    21577923.432
        47.000          39.000
 125054150.777 4  97444783.196 3  23797022.880    23797024.233    23797022.335
        29.000          23.000
 117128462.991 6  91268952.099 5  22288791.054    22288788.990    22288790.663
        39.000          34.000
 12  1  1  1 51  0.0000000  0  8G32G12G20G31G14G25G 1G22
 117651033.695 6  91676134.036 6  22388245.534    22388244.905    22388244.760
        40.000          36.000
 121947997.559 5  95024409.018 5  23205935.483    23205934.792    23205935.460
        34.000          32.000
 126330230.125 3  98439153.282 2  24039834.008    24039832.708    24039833.392
        23.800          17.800
 109030469.305 7  84958817.002 7  20747800.619    20747798.988    20747800.664
        46.000          46.000
 108092951.909 7  84228283.611 7  20569399.360    20569397.802    20569398.789
        43.000          46.000
 113402922.336 7  88365910.776 6  21579861.006    21579862.205    21579860.381
        47.000          39.000
 125083882.841 5  97467951.027 3  23802680.902    23802682.304    23802680.363
        30.100          23.000
 117222358.834 6  91342117.666 5  22306659.944    22306657.002    22306658.337
        38.000          35.100
 12  1  1  1 51 30.0000000  0  8G32G12G20G31G14G25G 1G22
 117586966.998 6  91626211.943 6  22376054.035    22376053.388    22376053.276
        40.000          36.000
 122017126.714 5  95078275.889 5  23219090.478    23219089.284    23219090.207
        34.000          32.000
 126233410.973 4  98363709.773 3  24021410.780    24021408.475    24021410.153
        28.100          19.900
 108987354.474 7  84925221.042 7  20739595.994    20739594.627    20739596.048
        46.000          46.000
 108115982.876 7  84246229.819 7  20573782.045    20573780.496    20573781.503
        43.000          46.000
 113413720.474 7  88374324.919 6  21581915.815    21581916.951    21581915.245
        47.000          39.000
 125114126.357 4  97491517.419 4  23808435.959    23808437.833    23808435.207
        29.000          25.900
 117316550.609 6  91415513.792 5  22324583.031    22324581.062    22324582.507
        39.000          34.000
 12  1  1  1 52  0.0000000  0  8G32G12G20G31G14G25G 1G22
 117523279.509 6  91576585.338 6  22363934.841    22363934.070    22363933.907
        40.000          36.000
 122086729.152 5  95132511.565 5  23232335.557    23232334.051    23232335.552
        34.000          31.000
 126136851.487 3  98288468.622 2  24003035.028    24003033.977    24003034.504
        23.000          17.000
 108944653.189 7  84891947.320 7  20731470.429    20731468.746    20731470.387
        46.000          46.000
 108139331.323 7  84264423.420 7  20578225.159    20578223.570    20578224.574
        43.000          46.000
 113425137.482 7  88383221.293 6  21584088.405    21584089.660    21584087.899
        47.000          39.000
 125144879.661 4  97515481.025 4  23814287.423    23814289.701    23814287.216
        28.100          24.900
 117411035.730 6  91489138.531 5  22342564.293    22342560.774    22342562.615
        39.000          33.000
 12  1  1  1 52 30.0000000  0  8G32G12G20G31G14G25G 1G22
 117459973.202 6  91527255.754 6  22351887.794    22351887.506    22351887.119
        40.000          37.000
 122156802.713 5  95187114.344 5  23245670.577    23245668.587    23245670.242
        34.000          30.100
 126040554.012 4  98213431.686 3  23984709.990    23984709.501    23984710.420
        24.900          19.300
 108902366.010 7  84858996.275 7  20723423.356    20723421.663    20723423.362
        46.000          46.000
 108162997.855 7  84282864.872 7  20582728.771    20582727.124    20582728.170
        43.000          46.000
 113437173.059 7  88392599.671 6  21586378.559    21586380.031    21586378.006
        47.000          39.000
 125176141.044 4  97539840.548 4  23820236.226    23820238.476    23820235.903
        28.100          25.900
 117505812.377 6  91562990.432 5  22360598.079    22360596.169    22360598.072
        39.000          33.000
 12  1  1  1 53  0.0000000  0  8G32G12G20G31G14G25G 1G22
 117397050.129 6  91478224.799 6  22339914.118    22339913.717    22339913.289
        40.000          37.000
 122227344.663 5  95242082.096 5  23259094.053    23259092.563    23259093.987
        34.000          32.000
 125944521.200 3  98138600.932 3  23966436.632    23966434.882    23966435.875
        22.100          21.100
 108860492.982 7  84826367.957 7  20715455.238    20715453.573    20715455.208
        46.000          46.000
 108186982.505 7  84301554.203 7  20587292.811    20587291.282    20587292.197
        43.000          46.000
 113449826.680 7  88402459.638 6  21588786.194    21588787.844    21588785.785
        47.000          39.000
 125207908.753 4  97564594.611 4  23826282.096    23826283.845    23826281.412
        28.100          25.900
 117600878.279 6  91637067.725 5  22378690.845    22378686.808    22378688.817
        39.000          34.000
 12  1  1  1 53 30.0000000  0  8G32G12G20G31G14G25G 1G22
 117334512.210 6  91429493.962 6  22328013.292    22328013.112    22328012.519
        41.000          37.000
 122298352.413 5  95297412.797 5  23272606.279    23272604.735    23272606.258
        35.100          31.000
 125848755.852 3  98063978.602 3  23948212.321    23948211.164    23948211.897
        21.100          23.000
 108819034.085 7  84794062.338 7  20707565.926    20707564.199    20707565.836
        46.000          47.000
 108211285.337 7  84320491.473 7  20591917.258    20591915.957    20591916.735
        43.000          46.000
 113463097.810 7  88412800.785 6  21591311.930    21591313.151    21591311.309
        47.000          39.000
 125240180.999 4  97589741.829 4  23832422.974    23832425.109    23832422.334
        28.100          25.900
 117696231.236 6  91711368.693 5  22396833.765    22396831.856    22396833.387
        38.000          34.000
 12  1  1  1 54  0.0000000  0  8G32G12G20G31G14G25G 1G22
 117272361.571 6  91381064.897 6  22316186.437    22316186.143    22316185.644
        40.000          37.000
 122369823.939 5  95353104.896 5  23286207.454    23286205.140    23286206.910
        33.000          30.100
 125753260.227 4  97989566.506 3  23930040.158    23930038.887    23930039.279
        24.900          21.100
 108777989.270 7  84762079.379 7  20699755.409    20699753.609    20699755.319
        47.000          46.000
 108235906.624 7  84339676.886 7  20596602.600    20596601.186    20596602.058
        43.000          46.000
 113476985.937 7  88423622.714 6  21593954.762    21593955.959    21593954.175
        47.000          39.000
 125272956.053 4  97615280.822 4  23838659.382    23838661.739    23838659.026
        28.100          24.900
 117791869.138 6  91785891.673 5  22415034.362    22415031.157    22415032.813
        38.000          33.000
 12  1  1  1 54 30.0000000  0  8G32G12G20G31G14G25G 1G22
 117210600.182 6  91332939.148 6  22304433.836    22304433.043    22304432.895
        40.000          36.000
 122441756.672 5  95409156.390 4  23299896.169    23299892.994    23299895.798
        35.100          29.000
 125658037.106 3  97915366.660 2  23911920.527    23911918.664    23911919.568
        23.000          17.800
 108737358.760 7  84730419.259 7  20692023.478    20692021.786    20692023.500
        47.000          46.000
 108260846.646 7  84359110.666 7  20601348.562    20601347.106    20601348.018
        42.000          45.000
 113491490.518 7  88434924.989 6  21596714.781    21596716.103    21596714.241
        47.000          39.000
 125306232.106 4  97641210.196 4  23844992.014    23844994.169    23844991.392
        27.100          25.900
 117887789.554 6  91860634.847 5  22433286.566    22433284.194    22433285.967
        39.000          33.000
 12  1  1  1 55  0.0000000  0  8G32G12G20G31G14G25G 1G22
 117149230.025 6  91285118.251 6  22292755.185    22292754.664    22292754.454
        41.000          36.000
 122514148.474 5  95465565.588 5  23313670.391    23313669.080    23313670.491
        33.000          30.100
 125563089.003 4  97841381.154 3  23893851.384    23893850.909    23893851.237
        24.900          19.300
 108697142.424 7  84699081.862 7  20684370.480    20684368.860    20684370.584
        47.000          47.000
 108286105.652 7  84378793.007 7  20606155.351    20606153.740    20606154.791
        43.000          45.000
 113506610.947 7  88446707.152 6  21599592.133    21599593.523    21599591.586
        47.000          39.000
 125340007.301 4  97667528.537 4  23851418.828    23851421.311    23851418.379
        25.900          25.900
 117983990.420 6  91935596.501 5  22451593.531    22451590.814    22451592.110
        37.000          33.000
 12  1  1  1 55 30.0000000  0  8G32G12G20G31G14G25G 1G22
 117088253.085 6  91237603.760 6  22281151.804    22281151.276    22281151.062
        41.000          37.000
 122586996.575 5  95522330.363 5  23327533.847    23327531.680    23327533.571
        35.100          30.100
 125468418.719 4  97767612.120 3  23875837.139    23875835.240    23875836.514
        27.100          19.300
 108657340.422 7  84668067.325 7  20676796.565    20676794.738    20676796.593
        47.000          46.000
 108311683.736 7  84398723.976 7  20611022.733    20611021.119    20611022.127
        43.000          45.000
 113522346.599 7  88458968.711 6  21602586.795    21602587.881    21602586.036
        47.000          39.000
 125374279.834 4  97694234.389 4  23857941.067    23857942.964    23857940.813
        25.900          25.900
 118080469.511 6  92010775.000 5  22469952.552    22469949.956    22469951.638
        38.000          33.000
 12  1  1  1 56  0.0000000  0  8G32G12G20G31G14G25G 1G22
 117027671.425 6  91190397.283 6  22269623.818    22269622.944    22269622.927
        41.000          37.000
 122660298.454 5  95579448.708 5  23341482.675    23341480.705    23341482.076
        33.000          31.000
 125374028.778 4  97694061.513 3  23857874.808    23857873.619    23857874.336
        24.900          22.100
 108617952.661 7  84637375.577 7  20669301.244    20669299.531    20669301.251
        47.000          47.000
 108337580.814 7  84418903.515 7  20615950.649    20615949.097    20615950.096
        43.000          45.000
 113538696.896 7  88471709.208 6  21605697.602    21605699.178    21605697.238
        47.000          39.000
 125409047.825 4  97721326.325 4  23864557.465    23864559.611    23864556.718
        27.100          27.100
 118177224.647 6  92086168.561 5  22488364.003    22488362.033    22488363.467
        38.000          33.000
 12  1  1  1 56 30.0000000  0  9G32G12G20G31G30G14G25G 1G22
 116967486.920 6  91143500.273 6  22258170.760    22258170.063    22258169.923
        41.000          37.000
 122734051.771 5  95636918.820 5  23355517.027    23355515.864    23355516.774
        33.000          31.000
 125279921.766 4  97620731.395 3  23839967.377    23839965.990    23839966.320
        25.900          21.100
 108578979.306 7  84607006.748 7  20661884.910    20661883.166    20661884.893
        47.000          47.000
 130027936.990 3 101320469.152 3  24743495.333    24743497.866    24743494.719
        21.100          22.100
 108363797.234 7  84439331.891 7  20620939.417    20620937.880    20620938.938
        43.000          45.000
 113555661.129 7  88484928.100 6  21608926.153    21608927.268    21608925.496
        47.000          39.000
 125444309.423 3  97748802.878 4  23871266.813    23871269.943    23871266.584
        23.800          27.100
 118274253.438 6  92161775.382 5  22506829.101    22506826.135    22506827.590
        38.000          33.000
 12  1  1  1 57  0.0000000  0  9G32G12G20G31G30G14G25G 1G22
 116907701.633 6  91096914.340 6  22246793.969    22246793.546    22246793.133
        41.000          37.000
 122808253.849 5  95694738.641 4  23369637.630    23369635.449    23369637.283
        34.000          29.000
 125186100.094 4  97547623.622 3  23822113.599    23822112.230    23822113.049
        28.100          19.900
 108540420.334 7  84576960.803 7  20654547.306    20654545.574    20654547.313
        47.000          47.000
 129907262.020 3 101226436.775 3  24720531.798    24720534.048    24720530.879
        19.300          22.100
 108390333.143 7  84460009.219 7  20625989.253    20625987.583    20625988.600
        43.000          45.000
 113573238.682 7  88498624.900 6  21612270.858    21612272.199    21612270.367
        47.000          39.000
 125480062.735 4  97776662.595 4  23878070.929    23878073.408    23878070.407
        25.900          28.100
 118371553.869 6  92237593.848 5  22525343.758    22525341.816    22525343.236
        37.000          33.000
 12  1  1  1 57 30.0000000  0  9G32G12G20G31G30G14G25G 1G22
 116848317.501 6  91050640.994 6  22235493.770    22235493.770    22235492.925
        41.000          37.000
 122882902.330 5  95752906.282 4  23383842.573    23383840.547    23383842.398
        33.000          29.000
 125092566.483 4  97474740.254 3  23804314.982    23804313.171    23804313.861
        24.900          21.100
 108502275.459 7  84547237.538 7  20647288.616    20647286.818    20647288.629
        47.000          47.000
 129786593.715 2 101132409.601 2  24697569.243    24697571.279    24697568.449
        15.100          17.800
 108417188.609 7  84480935.550 7  20631099.491    20631097.993    20631099.054
        43.000          45.000
 113591428.794 7  88512799.015 6  21615732.299    21615733.861    21615731.800
        47.000          39.000
 125516305.815 4  97804903.949 4  23884967.527    23884970.143    23884967.174
        25.900          27.100
 118469123.620 6  92313622.197 5  22543911.304    22543908.637    22543910.025
        37.000          32.000
 12  1  1  1 58  0.0000000  0  9G32G12G20G31G30G14G25G 1G22
 116789336.397 6  91004681.695 6  22224269.785    22224269.333    22224269.047
        41.000          37.000
 122957994.472 5  95811419.671 5  23398132.361    23398130.320    23398131.948
        32.000          30.100
 124999323.474 4  97402083.392 3  23786571.096    23786569.410    23786570.722
        27.100          19.300
 108464544.876 7  84517837.098 7  20640108.696    20640106.943    20640108.761
        47.000          47.000
 129665934.559 2 101038389.571 2  24674609.210    24674609.738    24674607.420
        17.000          16.100
 108444364.045 7  84502111.213 7  20636270.815    20636269.272    20636270.275
        43.000          45.000
 113610230.727 7  88527449.877 6  21619310.635    21619311.879    21619309.829
        47.000          39.000
 125553036.742 4  97833525.441 4  23891957.389    23891959.723    23891956.932
        24.900          28.100
 118566960.581 6  92389858.752 5  22562529.041    22562526.452    22562527.892
        37.000          31.000
 12  1  1  1 58 30.0000000  0  9G32G12G20G31G30G14G25G 1G22
 116730760.290 6  90959037.985 6  22213123.198    22213122.615    22213122.285
        41.000          37.000
 123033528.490 5  95870277.338 5  23412506.391    23412504.119    23412505.965
        34.000          30.100
 124906373.715 3  97329655.046 2  23768883.086    23768881.521    23768882.389
        23.800          17.800
 108427228.713 7  84488759.586 7  20633007.710    20633005.891    20633007.741
        47.000          47.000
 129545287.078 3 100944378.578 2  24651651.689    24651651.558    24651650.121
        22.100          16.100
 108471859.557 7  84523536.286 7  20641503.067    20641501.509    20641502.485
        43.000          45.000
 113629643.785 7  88542576.948 6  21623004.156    21623005.885    21623003.739
        46.000          39.000
 125590253.591 4  97862525.573 4  23899039.462    23899041.464    23899038.903
        27.100          27.100
 118665062.208 6  92466301.541 5  22581196.983    22581194.503    22581196.154
        37.000          31.000
 12  1  1  1 59  0.0000000  0  9G32G12G20G31G30G14G25G 1G22
 116672591.186 6  90913711.416 6  22202053.834    22202053.530    22202053.048
        41.000          37.000
 123109501.402 5  95929477.005 4  23426962.754    23426960.721    23426962.425
        31.000          29.000
 124813719.846 3  97257457.191 3  23751251.352    23751250.330    23751250.646
        23.800          19.300
 108390326.708 7  84460004.788 7  20625985.623    20625983.629    20625985.612
        47.000          47.000
 129424653.868 3 100850378.731 2  24628695.441    24628696.236    24628693.735
        19.900          17.800
 108499675.128 7  84545210.751 7  20646796.411    20646794.607    20646795.716
        43.000          45.000
 113649667.143 7  88558179.563 6  21626814.694    21626816.024    21626814.074
        46.000          39.000
 125627954.376 4  97891902.803 4  23906213.324    23906215.890    23906213.126
        25.900          27.100
 118763426.526 6  92542949.029 5  22599914.752    22599912.842    22599914.199
        37.000          31.000
 12  1  1  1 59 30.0000000  0  9G32G12G20G31G30G14G25G 1G22
 116614831.015 7  90868703.502 6  22191062.393    22191062.093    22191061.723
        42.000          37.000
 123185910.896 5  95989016.880 5  23441503.137    23441501.564    23441502.764
        32.000          30.100
 124721364.495 4  97185491.999 3  23733677.081    23733676.131    23733676.636
        25.900          21.100
 108353838.911 7  84431572.751 7  20619041.998    20619040.228    20619042.038
        47.000          47.000
 129304037.269 3 100756391.832 3  24605742.838    24605743.345    24605741.237
        22.100          19.300
 108527811.180 7  84567134.945 7  20652150.260    20652148.666    20652149.797
        43.000          44.000
 113670299.989 7  88574257.108 6  21630741.140    21630742.317    21630740.512
        47.000          39.000
 125666137.095 4  97921655.554 4  23913479.381    23913482.141    23913479.103
        25.900          27.100
 118862051.030 6  92619799.243 5  22618682.372    22618680.576    22618681.616
        36.000          31.000
 12  1  1  2  0  0.0000000  0  9G32G12G20G31G30G14G25G 1G22
 116557481.710 7  90824015.738 6  22180149.490    22180148.804    22180148.597
        42.000          37.000
 123262754.250 5  96048894.815 4  23456125.706    23456124.036    23456125.710
        33.000          29.000
 124629310.281 4  97113761.445 3  23716160.229    23716158.540    23716159.437
        24.900          23.000
 108317765.201 7  84403463.384 7  20612177.514    20612175.611    20612177.429
        47.000          47.000
 129183439.892 3 100662419.909 2  24582793.629    24582794.200    24582792.304
        23.000          17.000
 108556267.750 7  84589308.899 7  20657565.074    20657563.819    20657564.819
        43.000          44.000
 113691541.510 7  88590808.947 6  21634783.202    21634784.560    21634782.647
        47.000          39.000
 125704799.745 4  97951782.304 4  23920836.388    23920839.170    23920836.248
        24.900          25.900
 118960933.632 6  92696850.576 5  22637499.376    22637497.267    22637498.576
        37.000          32.000
 12  1  1  2  0 30.0000000  0  9G32G12G20G31G30G14G25G 1G22
 116500545.168 7  90779649.605 6  22169314.782    22169314.113    22169313.949
        42.000          37.000
 123340029.002 5  96109108.937 4  23470830.648    23470829.023    23470830.638
        33.000          29.000
 124537559.786 4  97042267.558 3  23698699.878    23698698.926    23698699.554
        27.100          22.100
 108282105.332 7  84375676.494 7  20605391.643    20605389.845    20605391.578
        46.000          47.000
 129062864.142 3 100568464.838 3  24559848.026    24559849.586    24559847.017
        23.800          19.900
 108585044.946 7  84611732.689 7  20663041.573    20663039.975    20663041.062
        43.000          44.000
 113713390.875 7  88607834.431 6  21638941.115    21638942.465    21638940.442
        47.000          39.000
 125743940.219 3  97982281.365 4  23928284.995    23928287.426    23928284.404
        23.800          25.900
 119060071.900 6  92774101.137 5  22656365.004    22656362.382    22656363.946
        36.000          31.000
 12  1  1  2  1  0.0000000  0  9G32G12G20G31G30G14G25G 1G22
 116444023.359 7  90735606.642 6  22158558.982    22158558.378    22158558.155
        42.000          37.000
 123417732.422 5  96169657.047 5  23485616.828    23485615.547    23485616.832
        31.000          31.000
 124446115.560 4  96971012.325 3  23681299.752    23681297.877    23681298.911
        27.100          22.100
 108246859.404 7  84348212.158 7  20598684.440    20598682.787    20598684.461
        47.000          47.000
 128942312.638 4 100474528.683 3  24536908.017    24536909.680    24536907.206
        25.900          21.100
 108614142.843 7  84634406.375 7  20668578.941    20668577.095    20668578.315
        43.000          44.000
 113735847.147 7  88625332.821 6  21643214.305    21643215.671    21643213.728
        47.000          39.000
 125783556.688 4  98013151.321 4  23935824.048    23935826.376    23935823.612
        24.900          27.100
 119159463.792 6  92851549.325 5  22675278.046    22675276.240    22675277.651
        36.000          32.000
 12  1  1  2  1 30.0000000  0  9G32G12G20G31G30G14G25G 1G22
 116387918.134 7  90691888.294 6  22147882.462    22147881.976    22147881.699
        42.000          38.000
 123495862.100 5  96230537.319 5  23500484.784    23500483.112    23500484.555
        33.000          30.100
 124354980.069 3  96899997.668 3  23663956.623    23663955.396    23663955.680
        23.000          23.000
 108212027.436 7  84321070.393 7  20592056.309    20592054.463    20592056.264
        47.000          47.000
 128821787.863 3 100380613.328 2  24513972.877    24513973.527    24513972.125
        23.800          17.000
 108643561.508 7  84657330.017 7  20674176.936    20674175.284    20674176.374
        43.000          44.000
 113758909.462 7  88643303.462 6  21647602.817    21647604.186    21647602.404
        47.000          39.000
 125823646.945 4  98044390.470 4  23943452.358    23943454.970    23943452.219
        24.900          25.900
 119259106.910 6  92929193.252 5  22694240.589    22694237.912    22694239.178
        36.000          32.000
 12  1  1  2  2  0.0000000  0  9G32G12G20G31G30G14G25G 1G22
 116332231.320 7  90648495.980 6  22137285.839    22137285.077    22137284.949
        42.000          38.000
 123574415.021 5  96291747.397 4  23515432.804    23515431.096    23515432.646
        33.000          29.000
 124264155.981 4  96829225.683 3  23646672.992    23646672.353    23646672.546
        27.100          23.000
 108177608.978 7  84294250.838 7  20585506.635    20585504.713    20585506.611
        47.000          47.000
 128701292.293 3 100286720.691 2  24491042.422    24491044.288    24491041.694
        22.100          13.900
 108673301.189 7  84680503.792 7  20679836.338    20679834.607    20679835.604
        43.000          44.000
 113782576.904 7  88661745.624 6  21652106.646    21652107.896    21652106.087
        47.000          39.000
 125864208.945 3  98075997.225 4  23951171.158    23951173.930    23951170.895
        23.800          25.900
 119358998.977 5  93007031.191 5  22713249.006    22713246.583    22713248.001
        35.100          32.000
 12  1  1  2  2 30.0000000  0  9G32G12G20G31G30G14G25G 1G22
 116276964.877 7  90605431.226 6  22126768.950    22126768.089    22126768.114
        42.000          37.000
 123653389.122 5  96353285.683 4  23530461.310    23530458.988    23530461.129
        32.000          28.100
 124173646.215 4  96758698.591 3  23629449.660    23629448.808    23629448.782
        27.100          21.100
 108143604.010 7  84267753.469 7  20579035.801    20579033.691    20579035.749
        47.000          47.000
 128580828.510 3 100192852.855 2  24468120.068    24468120.725    24468119.102
        23.000          17.800
 108703362.037 7  84703927.828 7  20685556.494    20685554.933    20685556.051
        43.000          44.000
 113806848.481 7  88680658.543 6  21656725.324    21656726.566    21656724.832
        47.000          39.000
 125905240.583 3  98107969.921 4  23958979.319    23958982.163    23958978.982
        23.800          25.900
 119459137.896 6  93085061.469 5  22732304.500    22732302.582    22732303.942
        36.000          31.000
 12  1  1  2  3  0.0000000  0  9G32G12G20G31G30G14G25G 1G22
 116222120.690 7  90562695.502 6  22116332.282    22116331.614    22116331.509
        42.000          37.000
 123732781.898 5  96415150.184 4  23545569.146    23545567.347    23545568.837
        31.000          29.000
 124083453.083 4  96688418.215 3  23612286.122    23612285.878    23612285.369
        24.900          22.100
 108110012.659 7  84241578.393 7  20572643.548    20572641.537    20572643.494
        47.000          47.000
 128460399.092 3 100099011.811 2  24445203.962    24445203.570    24445202.666
        19.900          17.000
 108733744.398 7  84727602.400 7  20691337.976    20691336.550    20691337.597
        43.000          44.000
 113831723.280 7  88700041.512 6  21661459.005    21661460.134    21661458.418
        47.000          39.000
 125946739.778 3  98140306.949 4  23966876.204    23966879.087    23966875.891
        23.000          24.900
 119559521.052 5  93163282.077 5  22751408.383    22751404.739    22751406.732
        35.100          31.000
 12  1  1  2  3 30.0000000  0  9G32G12G20G31G30G14G25G 1G22
 116167700.626 7  90520290.259 6  22105976.495    22105975.681    22105975.670
        42.000          37.000
 123812590.525 5  96477338.739 4  23560755.817    23560754.453    23560755.799
        32.000          29.000
 123993579.028 4  96618386.506 3  23595184.724    23595182.715    23595183.805
        27.100          19.900
 108076834.549 7  84215725.326 8  20566329.907    20566328.001    20566329.863
        47.000          48.000
 128340006.519 3 100005199.480 2  24422290.884    24422293.302    24422291.418
        19.300          16.100
 108764448.156 7  84751527.403 7  20697180.864    20697179.270    20697180.343
        43.000          44.000
 113857200.248 7  88719893.705 6  21666307.048    21666308.226    21666306.466
        47.000          39.000
 125988704.341 4  98173006.613 4  23974861.769    23974864.752    23974861.719
        27.100          25.900
 119660146.245 6  93241691.281 5  22770555.828    22770553.118    22770554.805
        36.000          31.000
 12  1  1  2  4  0.0000000  0  9G32G12G20G31G30G14G25G 1G22
 116113706.669 7  90478217.038 6  22095701.854    22095701.108    22095701.007
        42.000          38.000
 123892812.355 5  96539849.238 4  23576021.753    23576020.414    23576021.612
        32.000          29.000
 123904026.651 4  96548605.422 3  23578142.914    23578141.680    23578142.358
        28.100          21.100
 108044069.734 7  84190194.310 8  20560094.980    20560093.050    20560094.982
        47.000          48.000
 128219653.288 3  99911417.789 3  24399390.055    24399391.605    24399388.980
        23.000          19.900
 108795473.571 7  84775703.047 7  20703084.835    20703083.172    20703084.354
        43.000          44.000
 113883278.385 7  88740214.339 6  21671269.398    21671270.686    21671268.825
        46.000          39.000
 126031132.175 4  98206067.261 3  23982936.262    23982937.937    23982935.625
        25.900          23.800
 119761011.082 6  93320287.215 5  22789749.521    22789747.079    22789748.744
        36.000          30.100
 12  1  1  2  4 30.0000000  0  9G32G12G20G31G30G14G25G 1G22
 116060140.421 7  90436477.107 6  22085508.314    22085508.101    22085507.587
        42.000          39.000
 123973444.798 5  96602679.719 4  23591366.227    23591364.171    23591365.821
        32.000          29.000
 123814798.843 4  96479077.272 3  23561163.435    23561162.152    23561162.627
        27.100          21.100
 108011717.626 7  84164984.888 8  20553938.509    20553936.529    20553938.535
        47.000          48.000
 128099342.009 3  99817668.844 3  24376495.558    24376497.217    24376494.537
        22.100          19.300
 108826820.469 7  84800129.191 7  20709049.980    20709048.274    20709049.438
        43.000          44.000
 113909956.670 7  88761002.623 6  21676346.288    21676347.335    21676345.611
        47.000          39.000
 126074021.095 4  98239487.192 4  23991098.047    23991099.738    23991097.480
        28.100          24.900
 119862113.675 5  93399068.421 5  22808990.138    22808986.400    22808988.241
        34.000          30.100
 12  1  1  2  5  0.0000000  0  9G32G12G20G31G30G14G25G 1G22
 116007003.859 7  90395072.008 6  22075396.866    22075396.600    22075396.024
        42.000          39.000
 124054485.343 5  96665828.212 4  23606787.279    23606785.437    23606787.118
        31.000          28.100
 123725898.026 4  96409803.906 3  23544246.269    23544245.044    23544245.735
        28.100          23.800
 107979778.615 7  84140097.358 8  20547860.799    20547858.773    20547860.693
        47.000          48.000
 127979075.170 3  99723954.447 2  24353609.127    24353610.298    24353608.558
        23.000          17.800
 108858489.337 7  84824806.229 7  20715076.228    20715074.664    20715075.765
        43.000          44.000
 113937233.977 7  88782257.671 6  21681537.067    21681538.160    21681536.473
        47.000          39.000
 126117368.927 4  98273264.737 3  23999346.538    23999348.532    23999346.040
        27.100          23.000
 119963451.272 6  93478032.754 5  22828272.416    22828270.368    22828271.783
        36.000          30.100
 12  1  1  2  5 30.0000000  0  9G32G12G20G31G30G14G25G 1G22
 115954298.783 7  90354003.130 6  22065367.538    22065367.037    22065366.729
        43.000          39.000
 124135931.279 5  96729292.565 4  23622286.003    23622283.795    23622285.678
        31.000          27.100
 123637326.858 4  96340787.447 3  23527391.281    23527390.745    23527390.783
        25.900          23.800
 107948252.174 7  84115531.305 8  20541861.291    20541859.471    20541861.294
        47.000          48.000
 127858855.416 3  99630276.769 3  24330731.939    24330733.897    24330731.363
        23.000          23.800
 108890480.294 7  84849734.243 7  20721164.129    20721162.391    20721163.450
        43.000          44.000
 113965109.242 7  88803978.665 6  21686841.621    21686842.682    21686840.949
        47.000          39.000
 126161173.477 4  98307398.152 4  24007681.810    24007684.396    24007681.756
        27.100          25.900
 120065021.814 5  93557178.582 5  22847601.085    22847598.736    22847600.021
        35.100          31.000
 12  1  1  2  6  0.0000000  0  9G32G12G20G31G30G14G25G 1G22
 115902027.053 7  90313271.916 6  22055420.685    22055420.685    22055419.817
        42.000          38.000
 124217779.895 5  96793070.737 4  23637861.553    23637858.973    23637861.246
        33.000          28.100
 123549087.793 4  96272029.737 3  23510600.343    23510599.227    23510599.700
        27.100          23.800
 107917138.063 7  84091286.548 8  20535940.485    20535938.609    20535940.507
        47.000          48.000
 127738685.046 4  99536637.600 3  24307864.962    24307865.834    24307864.060
        24.900          21.100
 108922793.338 7  84874913.235 7  20727313.041    20727311.356    20727312.411
        43.000          44.000
 113993581.376 7  88826164.752 6  21692259.333    21692260.729    21692258.832
        46.000          39.000
 126205432.550 4  98341885.735 4  24016104.198    24016106.533    24016104.141
        27.100          25.900
 120166822.772 5  93636503.982 5  22866973.781    22866970.742    22866972.198
        35.100          30.100
 12  1  1  2  6 30.0000000  0  9G32G12G20G31G30G14G25G 1G22
 115850190.434 7  90272879.752 6  22045556.473    22045555.624    22045555.665
        43.000          38.000
 124300028.552 5  96857160.584 4  23653511.947    23653510.699    23653512.267
        30.100          29.000
 123461183.344 4  96203532.802 4  23493872.518    23493871.806    23493871.909
        28.100          24.900
 107886436.202 7  84067363.030 8  20530098.133    20530096.266    20530098.102
        47.000          48.000
 127618566.808 3  99443038.984 3  24285007.657    24285008.321    24285006.285
        23.000          21.100
 108955428.465 7  84900343.202 7  20733523.144    20733521.688    20733522.668
        43.000          44.000
 114022649.219 7  88848815.021 6  21697790.963    21697792.049    21697790.365
        46.000          38.000
 126250143.864 4  98376725.729 4  24024611.896    24024614.753    24024611.547
        24.900          25.900
 120268852.087 5  93716007.315 5  22886388.111    22886386.169    22886387.510
        34.000          30.100
 12  1  1  2  7  0.0000000  0  9G32G12G20G31G30G14G25G 1G22
 115798790.895 7  90232828.163 6  22035775.592    22035774.676    22035774.657
        43.000          38.000
 124382674.776 5  96921560.258 4  23669239.607    23669237.956    23669239.501
        32.000          29.000
 123373616.324 4  96135298.763 3  23477208.578    23477207.945    23477208.309
        29.000          23.800
 107856146.232 7  84043760.464 8  20524334.068    20524332.270    20524334.126
        47.000          48.000
 127498503.331 3  99349483.106 4  24262159.306    24262161.076    24262158.822
        23.000          24.900
 108988385.976 7  84926024.381 7  20739794.859    20739793.200    20739794.233
        43.000          44.000
 114052311.597 7  88871928.573 6  21703435.520    21703436.590    21703434.974
        46.000          38.000
 126295305.274 4  98411916.418 4  24033206.570    24033208.781    24033206.354
        24.900          25.900
 120371107.255 5  93795686.625 5  22905847.105    22905844.843    22905846.029
        34.000          31.000
 12  1  1  2  7 30.0000000  0  9G32G12G20G31G30G14G25G 1G22
 115747830.027 7  90193118.405 6  22026077.877    22026077.161    22026077.014
        43.000          39.000
 124465715.974 5  96986267.684 4  23685041.530    23685040.099    23685041.257
        31.000          28.100
 123286389.443 4  96067329.804 4  23460610.580    23460609.419    23460609.532
        28.100          24.900
 107826268.261 7  84020478.935 8  20518648.511    20518646.633    20518648.424
        47.000          48.000
 127378496.730 3  99255971.536 3  24239323.227    24239324.345    24239322.348
        23.800          23.000
 109021665.953 7  84951956.834 7  20746127.739    20746126.215    20746127.205
        43.000          44.000
 114082567.367 7  88895504.507 6  21709192.827    21709194.127    21709192.300
        46.000          39.000
 126340914.405 3  98447455.996 4  24041885.533    24041887.786    24041885.034
        23.800          25.900
 120473585.771 5  93875539.977 5  22925348.617    22925346.004    22925347.262
        34.000          32.000
 12  1  1  2  8  0.0000000  0  9G32G12G20G31G30G14G25G 1G22
 115697309.685 7  90153751.907 6  22016464.035    22016464.035    22016463.235
        43.000          38.000
 124549149.417 5  97051280.744 4  23700918.232    23700917.134    23700918.324
        31.000          28.100
 123199504.730 4  95999627.439 3  23444076.925    23444075.715    23444075.951
        27.100          23.000
 107796801.816 7  83997518.076 8  20513041.290    20513039.391    20513041.280
        47.000          48.000
 127258550.316 4  99162506.815 3  24216497.874    24216499.580    24216497.505
        25.900          23.000
 109055268.170 7  84978140.371 7  20752522.110    20752520.445    20752521.511
        43.000          43.000
 114113415.253 7  88919541.828 6  21715062.954    21715064.368    21715062.346
        46.000          39.000
 126386969.078 3  98483342.731 4  24050649.334    24050651.954    24050648.808
        23.800          25.900
 120576285.584 5  93955565.768 5  22944891.105    22944889.107    22944890.363
        34.000          30.100
 12  1  1  2  8 30.0000000  0  9G32G12G20G31G30G14G25G 1G22
 115647231.692 7  90114730.100 6  22006934.359    22006933.766    22006933.567
        43.000          38.000
 124632972.115 5  97116597.165 4  23716869.283    23716868.017    23716869.319
        32.000          29.000
 123112964.961 4  95932193.863 3  23427609.097    23427607.157    23427608.221
        29.000          23.000
 107767746.558 7  83974877.631 8  20507512.226    20507510.406    20507512.272
        47.000          48.000
 127138666.322 4  99069090.783 3  24193684.087    24193685.797    24193683.734
        24.900          21.100
 109089192.940 7  85004575.244 7  20758977.762    20758976.133    20758977.218
        43.000          43.000
 114144854.093 7  88944039.632 6  21721045.532    21721047.043    21721045.061
        46.000          39.000
 126433466.952 3  98519574.843 4  24059497.389    24059500.082    24059496.802
        23.800          27.100
 120679204.256 5  94035762.096 4  22964476.224    22964473.752    22964475.051
        34.000          29.000
 12  1  1  2  9  0.0000000  0  9G32G12G20G31G30G14G25G 1G22
 115597597.828 7  90076054.363 6  21997489.539    21997488.824    21997488.710
        43.000          38.000
 124717182.044 5  97182215.299 4  23732893.719    23732892.470    23732893.797
        30.100          28.100
 123026773.064 4  95865031.370 3  23411206.647    23411205.330    23411205.985
        29.000          22.100
 107739102.270 7  83952557.411 8  20502061.395    20502059.611    20502061.371
        47.000          48.000
 127018847.111 3  98975725.187 3  24170883.548    24170884.982    24170883.340
        23.800          19.300
 109123440.320 7  85031261.509 7  20765494.833    20765493.247    20765494.387
        43.000          43.000
 114176882.616 7  88968996.929 6  21727140.629    21727141.923    21727140.001
        46.000          39.000
 126480405.728 3  98556150.506 4  24068429.728    24068432.183    24068429.330
        23.000          24.900
 120782339.408 5  94116127.110 4  22984101.755    22984099.933    22984100.630
        33.000          29.000
 12  1  1  2  9 30.0000000  0  9G32G12G20G31G30G14G25G 1G22
 115548409.730 7  90037725.978 6  21988129.320    21988128.778    21988128.545
        43.000          39.000
 124801775.897 5  97248132.573 5  23748992.074    23748990.392    23748991.786
        30.100          30.100
 122940931.415 4  95798141.793 3  23394872.290    23394870.621    23394871.300
        28.100          23.800
 107710868.744 7  83930557.271 8  20496688.736    20496686.882    20496688.731
        47.000          48.000
 126899095.408 3  98882412.213 3  24148096.395    24148097.263    24148094.997
        23.000          23.000
 109158010.429 7  85058199.252 7  20772073.310    20772071.679    20772072.791
        43.000          43.000
 114209499.505 7  88994412.692 6  21733347.111    21733348.568    21733346.622
        46.000          38.000
 126527783.086 3  98593067.918 4  24077445.088    24077447.636    24077444.890
        23.000          24.900
 120885688.688 5  94196658.966 4  23003769.153    23003766.703    23003767.524
        33.000          29.000
 12  1  1  2 10  0.0000000  0  9G32G12G20G31G30G14G25G 1G22
 115499669.177 7  89999746.334 6  21978854.538    21978853.786    21978853.657
        43.000          39.000
 124886751.051 5  97314346.971 4  23765162.072    23765160.446    23765161.937
        31.000          28.100
 122855442.249 4  95731526.868 3  23378603.830    23378602.091    23378603.321
        29.000          23.000
 107683045.858 7  83908877.102 8  20491394.158    20491392.406    20491394.234
        47.000          48.000
 126779413.797 3  98789153.857 3  24125321.143    24125322.580    24125320.164
        23.800          21.100
 109192903.449 7  85085388.616 7  20778713.278    20778711.567    20778712.700
        43.000          43.000
 114242703.520 7  89020285.951 6  21739665.744    21739667.129    21739665.049
        46.000          39.000
 126575596.705 3  98630325.267 4  24086543.801    24086546.271    24086543.572
        23.800          25.900
 120989249.839 5  94277355.930 4  23023476.287    23023473.642    23023474.844
        34.000          29.000
 12  1  1  2 10 30.0000000  0  9G32G12G20G31G30G14G25G 1G22
 115451378.002 7  89962116.856 6  21969665.119    21969664.231    21969664.250
        43.000          39.000
 124972105.042 5  97380856.612 4  23781405.004    23781401.878    23781404.407
        31.000          24.900
 122770308.577 4  95665188.956 3  23362403.242    23362402.142    23362402.601
        28.100          23.800
 107655633.229 7  83887516.609 8  20486177.768    20486175.918    20486177.816
        47.000          48.000
 126659804.878 3  98695952.120 3  24102561.069    24102561.817    24102559.984
        23.800          23.000
 109228119.417 7  85112829.634 7  20785414.897    20785412.936    20785414.208
        43.000          43.000
 114276493.325 7  89046615.668 6  21746095.826    21746097.134    21746095.186
        46.000          38.000
 126623844.195 3  98667920.695 4  24095724.921    24095728.084    24095724.853
        22.100          25.900
 121093020.471 5  94358216.120 4  23043223.406    23043220.572    23043221.915
        35.100          29.000
 12  1  1  2 11  0.0000000  0  9G32G12G20G31G30G14G25G 1G22
 115403537.915 7  89924838.868 6  21960561.490    21960560.572    21960560.643
        44.000          39.000
 125057835.538 5  97447659.594 4  23797717.672    23797716.239    23797717.710
        30.100          27.100
 122685532.782 4  95599129.907 3  23346271.429    23346269.564    23346270.491
        28.100          23.000
 107628630.502 7  83866475.527 8  20481039.494    20481037.446    20481039.425
        47.000          49.000
 126540271.103 4  98602808.962 3  24079813.836    24079815.348    24079813.053
        24.900          23.000
 109263658.281 7  85140522.249 7  20792177.406    20792175.813    20792176.971
        44.000          43.000
 114310867.576 7  89073400.803 6  21752637.146    21752638.136    21752636.538
        46.000          38.000
 126672523.202 4  98705852.386 4  24104988.700    24104991.077    24104988.285
        24.900          24.900
 121196998.132 5  94439237.642 4  23063008.977    23063006.948    23063008.363
        35.100          29.000
 12  1  1  2 11 30.0000000  0  9G32G12G20G31G30G14G25G 1G22
 115356150.546 7  89887913.652 6  21951543.676    21951543.210    21951542.861
        43.000          39.000
 125143939.370 4  97514753.505 4  23814103.315    23814101.340    23814102.754
        29.000          25.900
 122601117.161 4  95533351.522 4  23330207.345    23330206.086    23330206.429
        28.100          24.900
 107602037.383 7  83845753.622 8  20475978.800    20475976.936    20475978.805
        47.000          48.000
 126420815.151 4  98509726.407 3  24057082.663    24057083.453    24057081.752
        28.100          23.000
 109299520.246 7  85168466.635 7  20799001.802    20799000.227    20799001.248
        43.000          43.000
 114345824.939 7  89100640.304 6  21759289.155    21759290.354    21759288.643
        46.000          38.000
 126721631.371 3  98744118.484 4  24114333.708    24114335.797    24114333.182
        23.000          24.900
 121301180.739 5  94520418.850 4  23082834.940    23082832.233    23082833.593
        33.000          29.000
 12  1  1  2 12  0.0000000  0  9G32G12G20G31G30G14G25G 1G22
 115309217.643 7  89851342.563 6  21942612.536    21942612.095    21942611.694
        43.000          39.000
 125230414.028 5  97582136.354 4  23830559.204    23830557.070    23830558.977
        30.100          27.100
 122517064.599 4  95467856.036 3  23314212.466    23314211.125    23314211.866
        29.000          23.000
 107575853.576 7  83825350.663 8  20470996.010    20470994.379    20470996.037
        47.000          49.000
 126301439.714 3  98416706.596 3  24034365.511    24034366.330    24034364.913
        23.800          19.900
 109335705.473 7  85196662.911 7  20805887.456    20805885.995    20805887.038
        43.000          43.000
 114381364.015 7  89128333.099 6  21766052.135    21766053.205    21766051.440
        46.000          38.000
 126771166.260 3  98782717.084 4  24123759.561    24123762.262    24123759.264
        23.800          25.900
 121405565.842 5  94601757.838 4  23102698.751    23102696.029    23102697.576
        32.000          28.100
 12  1  1  2 12 30.0000000  0  9G32G12G20G31G30G14G25G 1G22
 115262740.932 7  89815126.954 6  21933768.446    21933767.750    21933767.563
        43.000          39.000
 125317256.785 5  97649806.022 4  23847085.216    23847082.839    23847084.717
        30.100          28.100
 122433377.528 4  95402645.329 4  23298287.219    23298286.108    23298286.739
        29.000          25.900
 107550078.951 7  83805266.551 8  20466091.453    20466089.672    20466091.427
        47.000          49.000
 126182147.167 4  98323751.392 3  24011664.620    24011666.227    24011664.238
        25.900          22.100
 109372213.889 7  85225111.028 7  20812834.973    20812833.219    20812834.460
        43.000          43.000
 114417483.396 7  89156478.073 6  21772925.188    21772926.542    21772924.635
        46.000          38.000
 126821125.489 3  98821646.351 4  24133266.498    24133268.983    24133265.968
        23.000          24.900
 121510151.009 5  94683252.720 4  23122600.908    23122597.991    23122599.507
        33.000          29.000
 12  1  1  2 13  0.0000000  0  9G32G12G20G31G30G14G25G 1G22
 115216721.998 7  89779268.050 6  21925011.351    21925010.612    21925010.527
        43.000          39.000
 125404464.784 5  97717760.322 3  23863679.814    23863677.562    23863679.492
        30.100          23.800
 122350058.722 4  95337721.587 3  23282432.377    23282431.261    23282431.727
        29.000          23.800
 107524712.774 7  83785500.708 8  20461264.492    20461262.637    20461264.445
        47.000          49.000
 126062940.183 3  98230862.852 3  23988980.153    23988981.982    23988979.918
        23.800          23.000
 109409045.647 7  85253811.094 7  20819844.054    20819842.118    20819843.280
        43.000          43.000
 114454181.681 7  89185074.144 6  21779908.746    21779909.922    21779908.280
        46.000          39.000
 126871506.657 4  98860904.398 4  24142854.048    24142856.124    24142853.887
        24.900          24.900
 121614933.659 5  94764901.506 4  23142540.868    23142537.758    23142539.000
        33.000          29.000
 12  1  1  2 13 30.0000000  0  9G32G12G20G31G30G14G25G 1G22
 115171162.540 7  89743767.177 6  21916341.803    21916341.168    21916340.890
        43.000          40.000
 125492035.056 4  97785996.945 4  23880343.634    23880341.575    23880343.285
        29.000          24.900
 122267110.130 5  95273086.332 3  23266648.034    23266646.480    23266647.363
        30.100          23.800
 107499754.762 7  83766052.914 8  20456515.118    20456513.202    20456515.104
        47.000          49.000
 125943821.420 3  98138043.091 3  23966313.578    23966314.366    23966312.353
        23.000          23.800
 109446200.600 7  85282763.005 7  20826913.987    20826912.550    20826913.568
        43.000          43.000
 114491457.403 7  89214120.167 6  21787002.458    21787003.302    21787001.648
        46.000          38.000
 126922307.291 4  98900489.286 4  24152521.092    24152523.368    24152520.754
        24.900          24.900
 121719911.708 5  94846702.539 4  23162516.504    23162514.498    23162515.483
        32.000          29.000
 12  1  1  2 14  0.0000000  0  9G32G12G20G31G30G14G25G 1G22
 115126064.188 7  89708625.615 6  21907759.595    21907759.293    21907758.735
        43.000          40.000
 125579965.090 5  97854513.831 4  23897075.918    23897074.629    23897075.879
        30.100          28.100
 122184534.794 5  95208741.917 3  23250933.878    23250932.897    23250933.829
        30.100          23.800
 107475205.041 7  83746923.271 8  20451843.561    20451841.465    20451843.496
        47.000          49.000
 125824793.392 3  98045294.010 4  23943662.991    23943664.222    23943661.797
        23.800          25.900
 109483678.959 7  85311966.916 7  20834046.266    20834044.395    20834045.560
        43.000          43.000
 114529309.085 7  89243614.987 6  21794205.194    21794206.112    21794204.455
        46.000          38.000
 126973524.944 4  98940399.135 3  24162267.288    24162269.843    24162266.942
        24.900          23.000
 121825082.559 5  94928653.803 4  23182529.484    23182527.813    23182528.679
        32.000          28.100
 12  1  1  2 14 30.0000000  0  9G32G12G20G31G30G14G25G 1G22
 115081428.703 7  89673844.732 6  21899265.690    21899265.290    21899264.870
        44.000          39.000
 125668252.569 4  97923309.275 4  23913875.927    23913874.622    23913876.092
        29.000          24.900
 122102335.582 5  95144690.589 4  23235292.459    23235290.889    23235291.698
        31.000          25.900
 107451062.651 7  83728111.026 8  20447249.335    20447247.321    20447249.341
        47.000          49.000
 125705858.759 4  97952617.726 4  23921030.658    23921031.824    23921029.613
        24.900          25.900
 109521480.901 7  85341422.968 7  20841239.511    20841237.975    20841238.898
        43.000          43.000
 114567735.277 7  89273557.474 6  21801517.207    21801518.376    21801516.648
        45.000          38.000
 127025157.165 4  98980632.045 3  24172093.122    24172094.832    24172092.447
        24.900          23.000
 121930444.112 5  95010753.641 4  23202579.505    23202577.469    23202578.461
        33.000          28.100
 12  1  1  2 15  0.0000000  0  9G32G12G20G31G30G14G25G 1G22
 115037257.603 7  89639425.699 6  21890860.139    21890859.550    21890859.326
        44.000          39.000
 125756894.524 5  97992380.954 4  23930744.744    23930742.671    23930744.496
        30.100          24.900
 122020513.891 4  95080933.439 4  23219722.458    23219721.050    23219721.551
        29.000          27.100
 107427327.761 7  83709616.320 8  20442732.778    20442730.764    20442732.767
        47.000          49.000
 125587020.190 4  97860016.291 4  23898416.044    23898417.225    23898415.474
        25.900          24.900
 109559606.237 7  85371131.018 7  20848494.262    20848492.982    20848493.786
        43.000          42.000
 114606734.444 7  89303946.441 6  21808938.538    21808939.714    21808937.996
        45.000          38.000
 127077201.469 3  99021186.037 3  24181996.723    24181998.461    24181995.876
        23.000          22.100
 122035993.660 5  95093000.023 4  23222665.503    23222662.657    23222664.133
        33.000          27.100
 12  1  1  2 15 30.0000000  0  9G32G12G20G31G30G14G25G 1G22
 114993552.601 7  89605369.860 6  21882543.517    21882542.710    21882542.579
        43.000          39.000
 125845888.167 4  98061726.656 4  23947679.845    23947677.906    23947679.740
        29.000          24.900
 121939072.710 4  95017472.785 4  23204224.623    23204223.187    23204223.812
        29.000          25.900
 107403999.535 7  83691438.490 8  20438293.650    20438291.519    20438293.573
        47.000          49.000
 125468280.191 4  97767491.654 4  23875820.352    23875821.965    23875819.557
        25.900          25.900
 109598055.124 7  85401091.182 7  20855811.101    20855809.475    20855810.502
        43.000          42.000
 114646305.095 7  89334780.718 6  21816468.657    21816469.928    21816467.943
        45.000          38.000
 127129655.392 4  99062059.226 3  24191978.291    24191980.403    24191977.782
        24.900          22.100
 122141729.144 5  95175391.272 4  23242786.315    23242783.529    23242784.823
        32.000          27.100
 12  1  1  2 16  0.0000000  0  9G32G12G20G31G30G14G25G 1G22
 114950315.246 7  89571678.423 6  21874315.806    21874314.914    21874314.873
        44.000          39.000
 125935230.782 4  98131344.280 4  23964680.226    23964679.369    23964680.495
        28.100          24.900
 121858014.671 5  94954310.669 4  23188799.874    23188798.185    23188799.126
        31.000          24.900
 107381077.684 7  83673577.315 8  20433931.655    20433929.626    20433931.618
        47.000          49.000
 125349641.290 4  97675045.816 3  23853243.920    23853245.204    23853243.657
        28.100          22.100
 109636827.530 7  85431303.442 7  20863189.126    20863187.634    20863188.549
        43.000          42.000
 114686445.649 7  89366059.085 6  21824106.624    21824108.380    21824106.326
        45.000          38.000
 127182516.394 3  99103249.626 3  24202036.930    24202039.435    24202036.462
        22.100          22.100
 122247648.067 5  95257925.451 4  23262941.080    23262939.543    23262940.609
        33.000          29.000
 12  1  1  2 16 30.0000000  0  9G32G12G20G31G30G14G25G 1G22
 114907547.153 7  89538352.645 6  21866177.104    21866176.441    21866176.336
        44.000          39.000
 126024919.850 4  98201231.870 4  23981748.716    23981746.666    23981748.224
        28.100          24.900
 121777342.397 5  94891449.172 4  23173448.110    23173446.755    23173447.500
        30.100          24.900
 107358561.951 7  83656032.598 8  20429646.927    20429645.072    20429646.911
        47.000          49.000
 125231106.161 4  97582680.836 4  23830687.553    23830688.924    23830686.957
        28.100          24.900
 109675923.381 7  85461767.738 7  20870628.691    20870627.259    20870628.271
        43.000          42.000
 114727154.532 7  89397780.297 6  21831853.608    21831854.921    21831853.159
        45.000          38.000
 127235781.936 3  99144755.254 3  24212173.147    24212175.284    24212172.791
        23.800          23.000
 122353748.181 5  95340600.804 4  23283131.781    23283129.776    23283130.701
        32.000          28.100
 12  1  1  2 17  0.0000000  0  9G32G12G20G31G30G14G25G 1G22
 114865249.943 7  89505393.788 6  21858128.424    21858127.566    21858127.542
        44.000          40.000
 126114952.002 5  98271386.802 4  23998880.986    23998878.985    23998880.907
        30.100          25.900
 121697058.381 4  94828890.194 4  23158169.975    23158169.598    23158169.562
        29.000          27.100
 107336452.034 7  83638804.102 8  20425439.602    20425437.712    20425439.576
        47.000          49.000
 125112677.524 4  97490398.814 3  23808150.969    23808152.118    23808150.340
        27.100          19.900
 109715343.130 7  85492484.414 7  20878130.281    20878128.658    20878129.786
        43.000          42.000
 114768430.174 7  89429943.140 6  21839708.302    21839709.412    21839707.637
        45.000          38.000
 127289449.529 3  99186574.142 3  24222385.974    24222388.071    24222385.497
        23.000          23.000
 122460026.578 5  95423415.075 4  23303356.229    23303354.279    23303355.012
        31.000          28.100
 12  1  1  2 17 30.0000000  0  9G32G12G20G31G30G14G25G 1G22
 114823425.104 7  89472803.015 6  21850169.322    21850168.704    21850168.504
        44.000          40.000
 126205325.007 4  98341807.364 4  24016077.955    24016076.374    24016078.089
        29.000          25.900
 121617165.035 5  94766635.640 4  23142967.121    23142966.124    23142966.801
        30.100          27.100
 107314747.122 7  83621891.193 8  20421309.313    20421307.396    20421309.264
        47.000          49.000
 124994357.784 4  97398201.687 3  23785635.846    23785637.176    23785635.212
        27.100          23.800
 109755086.651 7  85523453.395 7  20885692.957    20885691.605    20885692.574
        43.000          42.000
 114810270.954 7  89462546.350 6  21847670.399    21847671.424    21847669.791
        45.000          38.000
 127343516.655 3  99228704.349 3  24232674.090    24232676.832    24232673.907
        22.100          23.800
 122566481.454 5  95506366.869 4  23323613.778    23323611.940    23323612.545
        31.000          28.100
 12  1  1  2 18  0.0000000  0  9G32G12G20G31G30G14G25G 1G22
 114782074.219 7  89440581.551 6  21842300.459    21842299.822    21842299.638
        44.000          40.000
 126296036.222 4  98412491.429 4  24033340.629    24033338.236    24033339.963
        28.100          28.100
 121537664.726 5  94704687.368 4  23127839.331    23127837.734    23127838.512
        30.100          25.900
 107293446.992 8  83605293.704 8  20417256.051    20417254.072    20417256.058
        48.000          49.000
 124876149.782 4  97306091.604 3  23763141.063    23763142.800    23763140.455
        28.100          23.800
 109795153.646 7  85554674.431 7  20893317.787    20893316.071    20893317.124
        43.000          42.000
 114852675.269 7  89495588.680 6  21855739.862    21855740.620    21855739.172
        45.000          38.000
 127397980.671 3  99271143.837 4  24243038.525    24243041.211    24243038.173
        23.000          24.900
 122673110.082 5  95589454.060 4  23343904.752    23343902.756    23343903.534
        31.000          28.100
 12  1  1  2 18 30.0000000  0  9G32G12G20G31G30G14G25G 1G22
 114741198.824 7  89408730.599 6  21834522.094    21834521.441    21834521.287
        44.000          40.000
 126387082.011 4  98483436.178 4  24050666.248    24050663.805    24050665.437
        28.100          27.100
 121458560.022 4  94643047.337 4  23112786.329    23112784.502    23112785.211
        29.000          25.900
 107272551.412 7  83589011.443 8  20413279.672    20413277.707    20413279.619
        47.000          49.000
 124758055.954 4  97214070.493 4  23740668.753    23740669.896    23740667.926
        28.100          24.900
 109835544.304 7  85586147.673 7  20901003.641    20901002.165    20901003.151
        43.000          42.000
 114895641.462 7  89529068.840 6  21863915.493    21863916.945    21863915.137
        45.000          38.000
 127452839.058 3  99313890.632 3  24253477.334    24253479.829    24253476.765
        23.000          23.000
 122779910.223 5  95672674.892 4  23364228.372    23364226.023    23364227.194
        32.000          28.100
 12  1  1  2 19  0.0000000  0  9G32G12G20G31G30G14G25G 1G22
 114700800.567 7  89377251.446 6  21826834.633    21826833.969    21826833.772
        44.000          40.000
 126478460.459 4  98554640.186 4  24068053.978    24068052.402    24068053.811
        28.100          24.900
 121379853.363 5  94581717.491 4  23097809.151    23097806.988    23097807.998
        31.000          24.900
 107252059.671 7  83573043.854 8  20409380.158    20409378.230    20409380.111
        47.000          49.000
 124640078.908 4  97122140.370 4  23718218.204    23718219.703    23718217.729
        28.100          24.900
 109876258.756 7  85617873.208 6  20908751.462    20908749.745    20908750.930
        43.000          41.000
 114939167.873 7  89562985.528 6  21872198.286    21872199.884    21872197.804
        45.000          38.000
 127508089.266 3  99356942.724 4  24263991.148    24263993.997    24263990.677
        21.100          24.900
 122886879.411 5  95756027.460 4  23384583.958    23384581.556    23384582.662
        32.000          28.100
 12  1  1  2 19 30.0000000  0  9G32G12G20G31G30G14G25G 1G22
 114660880.814 7  89346145.151 6  21819238.197    21819237.515    21819237.333
        44.000          40.000
 126570169.010 4  98626101.395 4  24085505.205    24085504.388    24085505.375
        27.100          27.100
 121301547.237 5  94520699.730 4  23082907.368    23082905.840    23082906.650
        31.000          24.900
 107231971.758 8  83557390.935 8  20405557.563    20405555.695    20405557.607
        48.000          49.000
 124522221.369 4  97030303.387 4  23695790.256    23695791.977    23695790.048
        27.100          25.900
 109917296.665 7  85649850.786 7  20916560.692    20916559.106    20916560.256
        43.000          42.000
 114983252.795 7  89597337.421 6  21880587.545    21880588.866    21880587.042
        45.000          38.000
 127563728.665 3  99400298.101 4  24274579.395    24274581.704    24274579.092
        23.000          25.900
 122994015.295 5  95839509.917 4  23404971.377    23404968.872    23404969.885
        30.100          25.900
 12  1  1  2 20  0.0000000  0  9G32G12G20G31G30G14G25G 1G22
 114621441.159 7  89315412.957 6  21811733.064    21811732.342    21811732.244
        44.000          40.000
 126662204.401 4  98697817.267 4  24103019.459    24103017.850    24103019.235
        29.000          24.900
 121223644.249 5  94459996.093 3  23068082.880    23068081.300    23068082.216
        30.100          23.800
 107212286.569 8  83542051.832 8  20401811.667    20401809.774    20401811.688
        48.000          49.000
 124404485.877 4  96938561.505 3  23673386.853    23673387.571    23673385.978
        27.100          23.800
 109958658.402 7  85682080.700 7  20924431.704    20924430.049    20924431.096
        43.000          42.000
 115027894.554 7  89632123.217 6  21889082.651    21889083.788    21889081.973
        45.000          38.000
 127619754.597 3  99443954.671 4  24285241.229    24285243.268    24285240.453
        23.000          25.900
 123101315.341 4  95923120.295 4  23425388.781    23425387.095    23425388.266
        29.000          25.900
 12  1  1  2 20 30.0000000  0  9G32G12G20G31G30G14G25G 1G22
 114582483.016 7  89285055.969 6  21804319.585    21804319.585    21804318.721
        44.000          40.000
 126754564.059 4  98769785.859 3  24120594.593    24120592.632    24120594.559
        28.100          23.000
 121146146.610 5  94399608.332 4  23053335.508    23053334.027    23053334.958
        31.000          25.900
 107193003.754 7  83527026.268 8  20398142.384    20398140.322    20398142.216
        47.000          49.000
 124286875.102 4  96846916.805 3  23651005.636    23651007.228    23651005.301
        27.100          23.000
 110000343.944 7  85714562.930 7  20932364.097    20932362.564    20932363.585
        43.000          42.000
 115073091.416 7  89667341.556 6  21897683.183    21897684.470    21897682.568
        45.000          38.000
 127676164.565 3  99487910.484 4  24295975.022    24295977.676    24295974.759
        22.100          25.900
 123208777.449 5  96006856.970 4  23445838.898    23445836.849    23445838.080
        31.000          25.900
 12  1  1  2 21  0.0000000  0  9G32G12G20G31G30G14G25G 1G22
 114544007.927 7  89255075.381 6  21796997.996    21796997.123    21796997.114
        44.000          39.000
 126847244.961 4  98842004.756 4  24138231.418    24138229.804    24138230.799
        27.100          24.900
 121069056.888 5  94339538.419 4  23038665.853    23038664.515    23038665.258
        31.000          25.900
 107174123.023 7  83512314.017 8  20394549.371    20394547.421    20394549.282
        47.000          50.000
 124169391.640 4  96755371.285 4  23628650.330    23628650.600    23628649.070
        28.100          24.900
 110042353.179 7  85747297.396 7  20940358.536    20940356.854    20940357.849
        43.000          42.000
 115118841.640 7  89702991.086 6  21906389.055    21906390.569    21906388.666
        45.000          38.000
 127732955.890 3  99532163.448 4  24306781.985    24306784.810    24306781.787
        23.800          24.900
 123316398.909 5  96090717.806 4  23466319.508    23466316.163    23466318.028
        32.000          24.900
 12  1  1  2 21 30.0000000  0  9G32G12G20G31G30G14G25G 1G22
 114506017.341 7  89225472.329 6  21789768.488    21789767.812    21789767.734
        44.000          40.000
 126940244.466 4  98914471.903 4  24155928.612    24155926.869    24155928.990
        29.000          24.900
 120992377.504 5  94279788.253 4  23024074.089    23024072.794    23024073.385
        31.000          25.900
 107155644.015 7  83497914.797 8  20391032.862    20391030.990    20391032.936
        47.000          49.000
 124052038.128 4  96663927.038 4  23606318.282    23606318.958    23606317.483
        28.100          24.900
 110084685.883 7  85780283.910 7  20948414.023    20948412.364    20948413.504
        44.000          42.000
 115165143.478 7  89739070.445 6  21915200.196    21915201.444    21915199.491
        45.000          38.000
 127790125.957 3  99576711.539 4  24317661.735    24317664.065    24317661.253
        22.100          25.900
 123424177.537 5  96174701.108 4  23486828.434    23486825.741    23486827.510
        32.000          24.900
 12  1  1  2 22  0.0000000  0  9G32G12G20G31G30G14G25G 1G22
 114468512.667 7  89196247.914 6  21782631.734    21782630.994    21782630.851
        44.000          40.000
 127033560.186 4  98987185.469 4  24173685.101    24173684.403    24173685.334
        27.100          25.900
 120916111.033 5  94220359.829 4  23009561.413    23009560.030    23009560.754
        32.000          25.900
 107137566.138 7  83483828.140 8  20387592.737    20387590.885    20387592.761
        47.000          49.000
 123934817.179 4  96572586.062 4  23584011.605    23584012.665    23584010.956
        28.100          24.900
 110127342.396 7  85813522.742 7  20956531.266    20956529.575    20956530.826
        44.000          42.000
 115211995.138 7  89775578.235 6  21924115.482    21924116.703    21924114.926
        44.000          37.000
 127847672.063 3  99621552.647 3  24328612.178    24328614.374    24328611.909
        22.100          23.000
 123532110.870 5  96258804.944 4  23507367.362    23507365.470    23507366.321
        30.100          24.900
 12  1  1  2 22 30.0000000  0  9G32G12G20G31G30G14G25G 1G22
 114431495.487 7  89167403.362 6  21775587.430    21775586.846    21775586.671
        44.000          40.000
 127127189.328 4  99060143.229 3  24191502.305    24191500.966    24191503.105
        28.100          23.800
 120840259.803 5  94161254.981 4  22995127.334    22995126.043    22995126.699
        31.000          27.100
 107119888.748 8  83470053.561 8  20384228.773    20384226.891    20384228.802
        48.000          50.000
 123817731.426 4  96481350.439 4  23561730.832    23561731.847    23561730.348
        29.000          25.900
 110170322.442 7  85847013.679 6  20964710.098    20964708.422    20964709.622
        44.000          41.000
 115259394.859 7  89812513.086 6  21933135.340    21933136.728    21933134.892
        44.000          38.000
 127905591.591 3  99666684.746 4  24339633.790    24339636.596    24339633.581
        23.000          24.900
 123640196.617 4  96343027.562 4  23527935.178    23527933.876    23527934.242
        29.000          27.100
 12  1  1  2 23  0.0000000  0  9G32G12G20G31G30G14G25G 1G22
 114394967.062 7  89138939.654 6  21768636.305    21768635.664    21768635.468
        44.000          40.000
 127221128.716 4  99133342.752 3  24209379.185    24209376.842    24209378.614
        27.100          23.000
 120764826.188 5  94102475.536 4  22980772.731    22980771.304    22980771.939
        31.000          25.900
 107102611.283 7  83456590.615 8  20380941.080    20380939.114    20380941.064
        47.000          50.000
 123700783.468 4  96390222.204 4  23539476.962    23539477.542    23539475.790
        29.000          27.100
 110213626.343 7  85880756.971 6  20972950.668    20972948.857    20972950.034
        43.000          41.000
 115307340.797 7  89849873.566 6  21942259.103    21942260.708    21942258.551
        44.000          38.000
 127963881.828 3  99712105.718 3  24350726.141    24350728.430    24350725.731
        22.100          21.100
 123748432.056 4  96427366.814 3  23548532.470    23548529.788    23548530.945
        29.000          23.800
